[
   {
      "country":"France",
      "formatted_address":"Accueil Des Jeunes, 12 Rue Antoine Durenne, 55000 Bar Le Duc, France",
      "id":"1dd9fa3c-23e5-40dd-a9b7-2c05b6fb9a8f",
      "lat":48.7672084,
      "lng":5.1726409,
      "locality":"Bar Le Duc",
      "name":"Accueil Des Jeunes",
      "phone_number":"03 29 79 17 26",
      "point":null,
      "postal_code":"55000",
      "route":"Rue Antoine Durenne",
      "street_number":"12",
      "website":""
   },
   {
      "country":"France",
      "formatted_address":"Auberge D'Hevilliers, 2 Place de la Mairie, 55290 Hevilliers, France",
      "id":"83fe4354-1d91-4c31-a1fc-da9ccde51a26",
      "lat":48.6011782,
      "lng":5.33143949999999,
      "locality":"Hevilliers",
      "name":"Auberge D'Hevilliers",
      "phone_number":"03 29 70 90 02",
      "point":null,
      "postal_code":"55290",
      "route":"Place de la Mairie",
      "street_number":"2",
      "website":"www.aubergedhevilliers.fr"
   },
   {
      "country":"France",
      "formatted_address":"Auberge Du Caillou Saint-Martin,  Carrefour de Constantine, 55230 Rouvrois Sur Othain, France",
      "id":"218deb54-0295-490e-8ae3-08b390458226",
      "lat":49.398721,
      "lng":5.62402489999999,
      "locality":"Rouvrois Sur Othain",
      "name":"Auberge Du Caillou Saint-Martin",
      "phone_number":"03 29 88 95 66",
      "point":null,
      "postal_code":"55230",
      "route":"Carrefour de Constantine",
      "street_number":"",
      "website":"www.caillou-st-martin.fr"
   },
   {
      "country":"France",
      "formatted_address":"Auberge Du Canal, 8 Rue d'Abainville, 55130 Houdelaincourt, France",
      "id":"bc5ef825-74d4-4394-91c6-e1877014c9c1",
      "lat":48.5501315,
      "lng":5.47971140000004,
      "locality":"Houdelaincourt",
      "name":"Auberge Du Canal",
      "phone_number":"03 29 89 64 14",
      "point":null,
      "postal_code":"55130",
      "route":"Rue d'Abainville",
      "street_number":"8",
      "website":"www.aubergeducanal.com"
   },
   {
      "country":"France",
      "formatted_address":"Auberge Du Chaudron Fleuri, 14 Rue Principale, 55300 Rouvrois Sur Meuse, France",
      "id":"5d85d44f-c905-4cce-810c-dfcf9e1430e3",
      "lat":48.9458184943519,
      "lng":5.51883154763118,
      "locality":"Rouvrois Sur Meuse",
      "name":"Auberge Du Chaudron Fleuri",
      "phone_number":"03 29 90 13 43",
      "point":null,
      "postal_code":"55300",
      "route":"Rue Principale",
      "street_number":"14",
      "website":""
   },
   {
      "country":"France",
      "formatted_address":"Auberge Du Moulin Haut,  Domaine du Moulin Haut, 55260 Chaumont Sur Aire, France",
      "id":"5a386ad4-75e6-4178-9c5e-511f9fbcda59",
      "lat":48.9212567950222,
      "lng":5.26502543788149,
      "locality":"Chaumont Sur Aire",
      "name":"Auberge Du Moulin Haut",
      "phone_number":"03 29 70 66 46",
      "point":null,
      "postal_code":"55260",
      "route":"Domaine du Moulin Haut",
      "street_number":"",
      "website":"www.moulinhaut.fr"
   },
   {
      "country":"France",
      "formatted_address":"Auberge Du Val D'Ornain,  Varney, 55000 Val D'Ornain, France",
      "id":"a132ed31-e231-4946-9a85-58fe526b6260",
      "lat":48.7978602398382,
      "lng":5.11270889163211,
      "locality":"Val D'Ornain",
      "name":"Auberge Du Val D'Ornain",
      "phone_number":"03 29 45 29 23",
      "point":null,
      "postal_code":"55000",
      "route":"Varney",
      "street_number":"",
      "website":"www.auberge-val-ornain.fr"
   },
   {
      "country":"France",
      "formatted_address":"Bar Brasserie L'Europe, 26 Rue Colson, 55200 Commercy, France",
      "id":"54ab2bcc-addc-45f2-8bea-ec2032579b60",
      "lat":48.7625933,
      "lng":5.59196810000003,
      "locality":"Commercy",
      "name":"Bar Brasserie L'Europe",
      "phone_number":"09 54 44 74 82",
      "point":null,
      "postal_code":"55200",
      "route":"Rue Colson",
      "street_number":"26",
      "website":""
   },
   {
      "country":"France",
      "formatted_address":"Bar Hotel Restaurant Les Côtes De Meuse, 1 Rue du Général Lelorrain, 55210 Saint Maurice Sous Les Cotes, France",
      "id":"c26e2c03-f68b-4607-84e1-74f1499f1896",
      "lat":49.0172627297647,
      "lng":5.68018377050021,
      "locality":"Saint Maurice Sous Les Cotes",
      "name":"Bar Hotel Restaurant Les Côtes De Meuse",
      "phone_number":"03 29 89 35 61",
      "point":null,
      "postal_code":"55210",
      "route":"Rue du Général Lelorrain",
      "street_number":"1",
      "website":""
   },
   {
      "country":"France",
      "formatted_address":"Bar Restaurant : Le 19, 19 Rue de Verdun, 55300 Saint Mihiel, France",
      "id":"7da9098e-1ffa-4b81-b0f3-b393328e9698",
      "lat":48.8938157903082,
      "lng":5.54274165396725,
      "locality":"Saint Mihiel",
      "name":"Bar Restaurant : Le 19",
      "phone_number":"03 29 89 00 44",
      "point":null,
      "postal_code":"55300",
      "route":"Rue de Verdun",
      "street_number":"19",
      "website":""
   },
   {
      "country":"France",
      "formatted_address":"Bar Restaurant La Faillote,  Aérodrome de Verdun le Rozelier, 55320 Sommedieue, France",
      "id":"8a26a0f9-f483-4678-a59d-809dd673961d",
      "lat":49.1223556,
      "lng":5.46904719999998,
      "locality":"Sommedieue",
      "name":"Bar Restaurant La Faillote",
      "phone_number":"07 71 63 62 67",
      "point":null,
      "postal_code":"55320",
      "route":"Aérodrome de Verdun le Rozelier",
      "street_number":"",
      "website":""
   },
   {
      "country":"France",
      "formatted_address":"Bar Restauration Rapide La Caverne, 2 Rue Nationale, 55200 Lerouville, France",
      "id":"447b2216-27ac-49a5-844f-aca43417c21a",
      "lat":48.7935216,
      "lng":5.54112169999996,
      "locality":"Lerouville",
      "name":"Bar Restauration Rapide La Caverne",
      "phone_number":"03 29 91 67 75",
      "point":null,
      "postal_code":"55200",
      "route":"Rue Nationale",
      "street_number":"2",
      "website":""
   },
   {
      "country":"France",
      "formatted_address":"Bar-Restaurant Chez Mam'S, 56 Grande Rue, 55130 Demange Baudignecourt, France",
      "id":"63548ac5-4e6c-45f8-9d9f-51c0cd0ea7f6",
      "lat":48.581358,
      "lng":5.45969869999999,
      "locality":"Demange Baudignecourt",
      "name":"Bar-Restaurant Chez Mam'S",
      "phone_number":"09 77 75 20 24",
      "point":null,
      "postal_code":"55130",
      "route":"Grande Rue",
      "street_number":"56",
      "website":""
   },
   {
      "country":"France",
      "formatted_address":"Bistro Doudou, 3 Rue du Four, 55000 Bar Le Duc, France",
      "id":"28d7428b-7a15-45b0-9fdf-ab940e004499",
      "lat":48.7758916,
      "lng":5.16095259999997,
      "locality":"Bar Le Duc",
      "name":"Bistro Doudou",
      "phone_number":"09 67 44 08 40",
      "point":null,
      "postal_code":"55000",
      "route":"Rue du Four",
      "street_number":"3",
      "website":"http://www.bistrodoudou.com"
   },
   {
      "country":"France",
      "formatted_address":"Bistro Saint Jean, 132 Boulevard de la Rochelle, 55000 Bar Le Duc, France",
      "id":"2229d9db-39eb-4917-80a0-b74620bb67a7",
      "lat":48.7705281,
      "lng":5.16578789999994,
      "locality":"Bar Le Duc",
      "name":"Bistro Saint Jean",
      "phone_number":"03 29 45 40 40",
      "point":null,
      "postal_code":"55000",
      "route":"Boulevard de la Rochelle",
      "street_number":"132",
      "website":"https://bistrostjean.fr/"
   },
   {
      "country":"France",
      "formatted_address":"Bistrot Du Marche,  ZAC des cailloux, 55700 Stenay, France",
      "id":"55bdaf88-bf32-438d-9bd1-df3b5cd5f1e5",
      "lat":49.483851,
      "lng":5.203447,
      "locality":"Stenay",
      "name":"Bistrot Du Marche",
      "phone_number":"03 29 80 30 16",
      "point":null,
      "postal_code":"55700",
      "route":"ZAC des cailloux",
      "street_number":"",
      "website":""
   },
   {
      "country":"France",
      "formatted_address":"Boulangerie Patisserie Mageot, 4 Rue Général Pershing, 55300 Saint Mihiel, France",
      "id":"b11fe881-4636-4c96-8522-ec69c8db79bd",
      "lat":48.892614,
      "lng":5.541401,
      "locality":"Saint Mihiel",
      "name":"Boulangerie Patisserie Mageot",
      "phone_number":"03 29 89 01 44",
      "point":null,
      "postal_code":"55300",
      "route":"Rue Général Pershing",
      "street_number":"4",
      "website":""
   },
   {
      "country":"France",
      "formatted_address":"Brasserie Du Port,  Base de loisirs du Lac de Madine, 55210 Nonsard Lamarche, France",
      "id":"d28ca5e5-2a93-4d12-9ced-493bbd221fc2",
      "lat":48.9280500385443,
      "lng":5.75078320503235,
      "locality":"Nonsard Lamarche",
      "name":"Brasserie Du Port",
      "phone_number":"03 29 89 38 93",
      "point":null,
      "postal_code":"55210",
      "route":"Base de loisirs du Lac de Madine",
      "street_number":"",
      "website":""
   },
   {
      "country":"France",
      "formatted_address":"Brasserie Les Jumeaux, 3 Rue du Général Pershing, 55300 Saint Mihiel, France",
      "id":"dc77c02e-50bc-4b61-9062-bd44a8560039",
      "lat":48.892839,
      "lng":5.541272,
      "locality":"Saint Mihiel",
      "name":"Brasserie Les Jumeaux",
      "phone_number":"03 29 89 34 06",
      "point":null,
      "postal_code":"55300",
      "route":"Rue du Général Pershing",
      "street_number":"3",
      "website":""
   },
   {
      "country":"France",
      "formatted_address":"Brasserie-Bar Le 34-36, 14 Rue du Général Leclerc, 55130 Treveray, France",
      "id":"779bf721-f49d-4acc-9d15-71694af1c66e",
      "lat":48.6086832,
      "lng":5.3996817,
      "locality":"Treveray",
      "name":"Brasserie-Bar Le 34-36",
      "phone_number":"06 50 07 19 53",
      "point":null,
      "postal_code":"55130",
      "route":"Rue du Général Leclerc",
      "street_number":"14",
      "website":""
   },
   {
      "country":"France",
      "formatted_address":"Brioche Dorée,  RD36 La Favorite, 55190 Pagny Sur Meuse, France",
      "id":"07a0568e-b72f-4307-aa9b-850a2f6569bf",
      "lat":48.6853457718819,
      "lng":5.72600326535529,
      "locality":"Pagny Sur Meuse",
      "name":"Brioche Dorée",
      "phone_number":"03 29 90 69 00",
      "point":null,
      "postal_code":"55190",
      "route":"RD36 La Favorite",
      "street_number":"",
      "website":""
   },
   {
      "country":"France",
      "formatted_address":"Burger King, 1 Rue de Romains, 55000 Bar Le Duc, France",
      "id":"7d3ab3ac-858f-47b4-b3ad-d3cfff108dc6",
      "lat":48.7753122221909,
      "lng":5.16405479577026,
      "locality":"Bar Le Duc",
      "name":"Burger King",
      "phone_number":"03 29 45 57 85",
      "point":null,
      "postal_code":"55000",
      "route":"Rue de Romains",
      "street_number":"1",
      "website":"www.burgerking.fr"
   },
   {
      "country":"France",
      "formatted_address":"Cafe Des Colonnes, 21 Rue Gaston Broquet, 55190 Void Vacon, France",
      "id":"99b4ca2a-dad9-45e3-90d3-b78fc68d5759",
      "lat":48.6885527,
      "lng":5.6196569,
      "locality":"Void Vacon",
      "name":"Cafe Des Colonnes",
      "phone_number":"03 29 90 15 79",
      "point":null,
      "postal_code":"55190",
      "route":"Rue Gaston Broquet",
      "street_number":"21",
      "website":""
   },
   {
      "country":"France",
      "formatted_address":"Cafeteria Cora,  Avenue de Metz, 55100 Verdun, France",
      "id":"6849935c-8212-4835-b09e-6732184f7a32",
      "lat":49.1425130637727,
      "lng":5.40707588195801,
      "locality":"Verdun",
      "name":"Cafeteria Cora",
      "phone_number":"03 29 84 87 65",
      "point":null,
      "postal_code":"55100",
      "route":"Avenue de Metz",
      "street_number":"",
      "website":""
   },
   {
      "country":"France",
      "formatted_address":"Cafeteria Leclerc,  Centre Leclerc, 55100 Verdun, France",
      "id":"970dbddc-5b8d-4b02-90d9-dab6c222a397",
      "lat":49.1671421839093,
      "lng":5.38124084472656,
      "locality":"Verdun",
      "name":"Cafeteria Leclerc",
      "phone_number":"03 29 88 38 95",
      "point":null,
      "postal_code":"55100",
      "route":"Centre Leclerc",
      "street_number":"",
      "website":""
   },
   {
      "country":"France",
      "formatted_address":"Casino Cafeteria, 26 Boulevard de la Rochelle, 55000 Bar Le Duc, France",
      "id":"d0c18275-5f98-420e-82ee-f00557ace81d",
      "lat":48.7729525,
      "lng":5.16183709999996,
      "locality":"Bar Le Duc",
      "name":"Casino Cafeteria",
      "phone_number":"03 29 78 36 39",
      "point":null,
      "postal_code":"55000",
      "route":"Boulevard de la Rochelle",
      "street_number":"26",
      "website":""
   },
   {
      "country":"France",
      "formatted_address":"Chalet Restaurant La Bonne Table, 13 Rue du Château, 55400 Eix, France",
      "id":"30a353e6-4523-4313-bb03-b3d9ca27f7fd",
      "lat":49.1815674867563,
      "lng":5.49807177249144,
      "locality":"Eix",
      "name":"Chalet Restaurant La Bonne Table",
      "phone_number":"06 85 96 04 78",
      "point":null,
      "postal_code":"55400",
      "route":"Rue du Château",
      "street_number":"13",
      "website":"www.labonnetablerestaurant.fr"
   },
   {
      "country":"France",
      "formatted_address":"City Kebab, 27 Rue de Metz, 55400 Etain, France",
      "id":"fc6a02d5-9f45-4c5c-a4c2-59136689e21b",
      "lat":49.212236,
      "lng":5.635675,
      "locality":"Etain",
      "name":"City Kebab",
      "phone_number":"03 29 85 91 77",
      "point":null,
      "postal_code":"55400",
      "route":"Rue de Metz",
      "street_number":"27",
      "website":""
   },
   {
      "country":"France",
      "formatted_address":"Creperie La Capsule, 85 Rue de Rû, 55100 Verdun, France",
      "id":"d7c1925d-5f2f-4070-aa89-12dec2542c13",
      "lat":49.1588250856415,
      "lng":5.38281798362732,
      "locality":"Verdun",
      "name":"Creperie La Capsule",
      "phone_number":"03 29 85 86 40",
      "point":null,
      "postal_code":"55100",
      "route":"Rue de Rû",
      "street_number":"85",
      "website":""
   },
   {
      "country":"France",
      "formatted_address":"Creperie Le Glacier, 35 Rue des Rouyers, 55100 Verdun, France",
      "id":"a3755b0b-2486-4182-b1f3-ea38b9b5a791",
      "lat":49.1616876440408,
      "lng":5.38599371910095,
      "locality":"Verdun",
      "name":"Creperie Le Glacier",
      "phone_number":"03 29 74 83 34",
      "point":null,
      "postal_code":"55100",
      "route":"Rue des Rouyers",
      "street_number":"35",
      "website":""
   },
   {
      "country":"France",
      "formatted_address":"Creperie Paus'Cafe, 35 Boulevard de la Rochelle, 55000 Bar Le Duc, France",
      "id":"05a9c621-c3c1-4458-b902-5b8b85f7256e",
      "lat":48.7730125617036,
      "lng":5.16159531349172,
      "locality":"Bar Le Duc",
      "name":"Creperie Paus'Cafe",
      "phone_number":"03 29 45 41 98",
      "point":null,
      "postal_code":"55000",
      "route":"Boulevard de la Rochelle",
      "street_number":"35",
      "website":""
   },
   {
      "country":"France",
      "formatted_address":"Délices D'Asie, 10 bis Rue André Maginot, 55000 Bar Le Duc, France",
      "id":"7eceee44-ffd5-4007-b376-6efa2a070602",
      "lat":48.7740783,
      "lng":5.1598573,
      "locality":"Bar Le Duc",
      "name":"Délices D'Asie",
      "phone_number":"03 29 45 08 88",
      "point":null,
      "postal_code":"55000",
      "route":"Rue André Maginot",
      "street_number":"10 bis",
      "website":""
   },
   {
      "country":"France",
      "formatted_address":"Food Ball Tacos Et Burger, 17 Rue Salvador Allende, 55000 Bar Le Duc, France",
      "id":"41b140be-0bc3-4f47-84ca-7e7b14da5f78",
      "lat":48.7749894,
      "lng":5.1639993,
      "locality":"Bar Le Duc",
      "name":"Food Ball Tacos Et Burger",
      "phone_number":"07 81 69 10 50",
      "point":null,
      "postal_code":"55000",
      "route":"Rue Salvador Allende",
      "street_number":"17",
      "website":""
   },
   {
      "country":"France",
      "formatted_address":"Food Truck Du Père Oca, 3 Chemin Rural de Fauna, 55210 Nonsard Lamarche, France",
      "id":"e7dfb45f-da96-4bc4-9e91-c8f05d328516",
      "lat":48.930056,
      "lng":5.760566,
      "locality":"Nonsard Lamarche",
      "name":"Food Truck Du Père Oca",
      "phone_number":"06 17 97 88 01",
      "point":null,
      "postal_code":"55210",
      "route":"Chemin Rural de Fauna",
      "street_number":"3",
      "website":"https://www.gites-madine-insolites-france.fr/food-truck-du-pere-oca"
   },
   {
      "country":"France",
      "formatted_address":"Food Truck Les Cantinières,  Avenue du Soldat Inconnu, 55100 Verdun, France",
      "id":"04594e02-3f14-40ad-9387-d8807ed4e731",
      "lat":49.1572401624398,
      "lng":5.37597698122863,
      "locality":"Verdun",
      "name":"Food Truck Les Cantinières",
      "phone_number":"06 74 57 77 29",
      "point":null,
      "postal_code":"55100",
      "route":"Avenue du Soldat Inconnu",
      "street_number":"",
      "website":""
   },
   {
      "country":"France",
      "formatted_address":"Food Truck Speedy Burger,   55100 Verdun, France",
      "id":"7ad47918-36e4-43de-ab07-f36d331c1a07",
      "lat":49.1624,
      "lng":5.391541,
      "locality":"Verdun",
      "name":"Food Truck Speedy Burger",
      "phone_number":"07 50 03 39 12",
      "point":null,
      "postal_code":"55100",
      "route":"",
      "street_number":"",
      "website":""
   },
   {
      "country":"France",
      "formatted_address":"Foodtruck Lau'Livia,   55700 Stenay, France",
      "id":"621c6602-b32c-458e-bb01-63d7189fa28e",
      "lat":49.491252272924,
      "lng":5.18312638092039,
      "locality":"Stenay",
      "name":"Foodtruck Lau'Livia",
      "phone_number":"03 29 86 67 22",
      "point":null,
      "postal_code":"55700",
      "route":"",
      "street_number":"",
      "website":"https://laulivia.eatbu.com/"
   },
   {
      "country":"France",
      "formatted_address":"Frenchy'S Diner,  ZAC de la Grande Terre, 55000 Bar Le Duc, France",
      "id":"43c79e16-10e1-48d1-a796-b5cc2e853a10",
      "lat":48.7562487603154,
      "lng":5.19391892275394,
      "locality":"Bar Le Duc",
      "name":"Frenchy'S Diner",
      "phone_number":"03 29 79 21 10",
      "point":null,
      "postal_code":"55000",
      "route":"ZAC de la Grande Terre",
      "street_number":"",
      "website":""
   },
   {
      "country":"France",
      "formatted_address":"Friterie American Burger,  Avenue de Verdun, 55700 Stenay, France",
      "id":"8107132d-566d-4ab2-9f18-c37b83674f2c",
      "lat":49.4860948,
      "lng":5.19684099999995,
      "locality":"Stenay",
      "name":"Friterie American Burger",
      "phone_number":"07 72 40 60 87",
      "point":null,
      "postal_code":"55700",
      "route":"Avenue de Verdun",
      "street_number":"",
      "website":""
   },
   {
      "country":"France",
      "formatted_address":"Hostellerie Du Chateau Des Monthairons, 26 Route de Verdun, 55320 Les Monthairons, France",
      "id":"164f574f-b03b-442e-97b6-308df5b7f0ba",
      "lat":49.0610586789713,
      "lng":5.40915727615356,
      "locality":"Les Monthairons",
      "name":"Hostellerie Du Chateau Des Monthairons",
      "phone_number":"03 29 87 78 55",
      "point":null,
      "postal_code":"55320",
      "route":"Route de Verdun",
      "street_number":"26",
      "website":"www.chateaudesmonthairons.fr"
   },
   {
      "country":"France",
      "formatted_address":"Hotel Restaurant Bellevue, 3 Rue de la Fontaine, 55000 Longeville En Barrois, France",
      "id":"5df7b244-2906-42e5-b6c5-92732084ead3",
      "lat":48.7415823,
      "lng":5.20790390000002,
      "locality":"Longeville En Barrois",
      "name":"Hotel Restaurant Bellevue",
      "phone_number":"03 29 79 12 48",
      "point":null,
      "postal_code":"55000",
      "route":"Rue de la Fontaine",
      "street_number":"3",
      "website":"www.hotelbarleduc.fr"
   },
   {
      "country":"France",
      "formatted_address":"Hotel Restaurant Bertrand, 19 Rue de l'Etoile, 55000 Bar Le Duc, France",
      "id":"341a8609-4402-4031-83f3-16f112a9ae9a",
      "lat":48.7725838923784,
      "lng":5.17524605026256,
      "locality":"Bar Le Duc",
      "name":"Hotel Restaurant Bertrand",
      "phone_number":"03 29 79 02 97",
      "point":null,
      "postal_code":"55000",
      "route":"Rue de l'Etoile",
      "street_number":"19",
      "website":""
   },
   {
      "country":"France",
      "formatted_address":"Hotel Restaurant De La Gare, 25 Rue du 29 août 1944, 55000 Robert Espagne, France",
      "id":"250d4312-d4e9-43a9-9153-4d2a76b10b76",
      "lat":48.7411227806611,
      "lng":5.03409371964335,
      "locality":"Robert Espagne",
      "name":"Hotel Restaurant De La Gare",
      "phone_number":"03 29 75 42 73",
      "point":null,
      "postal_code":"55000",
      "route":"Rue du 29 août 1944",
      "street_number":"25",
      "website":"www.cafedelagare.fr"
   },
   {
      "country":"France",
      "formatted_address":"Hotel Restaurant Du Bindeuil,  Route départementale 960, 55290 Bure, France",
      "id":"b70c4292-8ef4-4c55-a7b8-82c05000045c",
      "lat":48.4881292555985,
      "lng":5.35486587823652,
      "locality":"Bure",
      "name":"Hotel Restaurant Du Bindeuil",
      "phone_number":"03 29 70 02 50",
      "point":null,
      "postal_code":"55290",
      "route":"Route départementale 960",
      "street_number":"",
      "website":"www.hotel-restaurant-lebindeuil.com"
   },
   {
      "country":"France",
      "formatted_address":"Hotel Restaurant Du Commerce, 1 Rue de la Louvière, 55120 Aubreville, France",
      "id":"da2a2792-34b4-4886-bc54-18de3c72aa28",
      "lat":49.1471684305686,
      "lng":5.0840342281723,
      "locality":"Aubreville",
      "name":"Hotel Restaurant Du Commerce",
      "phone_number":"03 29 87 40 35",
      "point":null,
      "postal_code":"55120",
      "route":"Rue de la Louvière",
      "street_number":"1",
      "website":"www.hotel-restaurant-aubreville.com"
   },
   {
      "country":"France",
      "formatted_address":"Hotel Restaurant Du Lac De Madine, 22 Rue Charles de Gaulle, 55210 Heudicourt Sous Les Cotes, France",
      "id":"caafc8c4-8be6-4ba8-9dd2-ee3e1bc02d48",
      "lat":48.9319955895777,
      "lng":5.69557987997052,
      "locality":"Heudicourt Sous Les Cotes",
      "name":"Hotel Restaurant Du Lac De Madine",
      "phone_number":"03 29 89 34 80",
      "point":null,
      "postal_code":"55210",
      "route":"Rue Charles de Gaulle",
      "street_number":"22",
      "website":"http://www.hotel-lac-madine.com"
   },
   {
      "country":"France",
      "formatted_address":"Hotel Restaurant Du Parc, 1 Rue du Parc, 55100 Dugny Sur Meuse, France",
      "id":"9c006236-87fe-4261-8e55-eff5e9579be2",
      "lat":49.1020843,
      "lng":5.38473380000005,
      "locality":"Dugny Sur Meuse",
      "name":"Hotel Restaurant Du Parc",
      "phone_number":"03 29 85 74 95",
      "point":null,
      "postal_code":"55100",
      "route":"Rue du Parc",
      "street_number":"1",
      "website":""
   },
   {
      "country":"France",
      "formatted_address":"Hotel Restaurant La Madeleine,  La Louvière, 55200 Commercy, France",
      "id":"2fc8d066-e063-4f0e-88c3-a01c6274685c",
      "lat":48.7533519298187,
      "lng":5.59913935322572,
      "locality":"Commercy",
      "name":"Hotel Restaurant La Madeleine",
      "phone_number":"03 29 91 51 25",
      "point":null,
      "postal_code":"55200",
      "route":"La Louvière",
      "street_number":"",
      "website":"hotelrestaurantdelamadeleine.fr"
   },
   {
      "country":"France",
      "formatted_address":"Hotel Restaurant La Sirene, 22 Rue Prud'homme Havette, 55400 Etain, France",
      "id":"11bfceff-bb13-4546-8a69-7505855b2184",
      "lat":49.2099087992573,
      "lng":5.6365657350708,
      "locality":"Etain",
      "name":"Hotel Restaurant La Sirene",
      "phone_number":"03 29 87 10 32",
      "point":null,
      "postal_code":"55400",
      "route":"Rue Prud'homme Havette",
      "street_number":"22",
      "website":""
   },
   {
      "country":"France",
      "formatted_address":"Hotel Restaurant La Table Des Bons Peres,  Relais de Romainville, 55300 Bislee, France",
      "id":"d89096ef-4d72-4399-b76f-b79eb2d1bddb",
      "lat":48.869288,
      "lng":5.517626,
      "locality":"Bislee",
      "name":"Hotel Restaurant La Table Des Bons Peres",
      "phone_number":"06 20 20 86 53",
      "point":null,
      "postal_code":"55300",
      "route":"Relais de Romainville",
      "street_number":"",
      "website":"http://www.relais-romainville.com"
   },
   {
      "country":"France",
      "formatted_address":"Hotel Restaurant La Vallee De L'Aire, 1 Place de la Tour, 55260 Chaumont Sur Aire, France",
      "id":"a1bea8ac-cca0-4d16-9355-e008d7d68b38",
      "lat":48.927518145517,
      "lng":5.25485765767212,
      "locality":"Chaumont Sur Aire",
      "name":"Hotel Restaurant La Vallee De L'Aire",
      "phone_number":"03 29 70 79 35",
      "point":null,
      "postal_code":"55260",
      "route":"Place de la Tour",
      "street_number":"1",
      "website":""
   },
   {
      "country":"France",
      "formatted_address":"Hotel Restaurant Le Bel Air, 7 Route Nationale, 55600 Marville, France",
      "id":"4ebe6b6c-051d-4deb-a792-7132b2e2ab62",
      "lat":49.4541777168111,
      "lng":5.45399414623262,
      "locality":"Marville",
      "name":"Hotel Restaurant Le Bel Air",
      "phone_number":"03 29 88 15 03",
      "point":null,
      "postal_code":"55600",
      "route":"Route Nationale",
      "street_number":"7",
      "website":"http://www.hotel-restaurant-bel-air-marville.fr"
   },
   {
      "country":"France",
      "formatted_address":"Hotel Restaurant Le Central, 2 Place Hotel de ville, 55130 Gondrecourt Le Chateau, France",
      "id":"180b034a-559e-4da5-bf3c-71f1129c5618",
      "lat":48.5133578,
      "lng":5.50616779999996,
      "locality":"Gondrecourt Le Chateau",
      "name":"Hotel Restaurant Le Central",
      "phone_number":"03 29 89 63 42",
      "point":null,
      "postal_code":"55130",
      "route":"Place Hotel de ville",
      "street_number":"2",
      "website":""
   },
   {
      "country":"France",
      "formatted_address":"Hotel Restaurant Le Grand Monarque, 1 Place de l'Eglise, 55270 Varennes En Argonne, France",
      "id":"ace09473-e97c-465e-9669-0250612eac94",
      "lat":49.2277,
      "lng":5.0356,
      "locality":"Varennes En Argonne",
      "name":"Hotel Restaurant Le Grand Monarque",
      "phone_number":"03 29 80 71 09",
      "point":null,
      "postal_code":"55270",
      "route":"Place de l'Eglise",
      "street_number":"1",
      "website":"legrandmonarquevarennes.fr"
   },
   {
      "country":"France",
      "formatted_address":"Hotel Restaurant Le Relais De La Voie Sacree, 1 Voie Sacrée, 55220 Les Trois Domaines, France",
      "id":"a61fceb0-708a-4c92-992d-a9e773d680bc",
      "lat":48.9701839074591,
      "lng":5.28738514603265,
      "locality":"Les Trois Domaines",
      "name":"Hotel Restaurant Le Relais De La Voie Sacree",
      "phone_number":"03 29 45 92 75",
      "point":null,
      "postal_code":"55220",
      "route":"Voie Sacrée",
      "street_number":"1",
      "website":"https://www.relaisdelavoiesacree.fr"
   },
   {
      "country":"France",
      "formatted_address":"Hotel Restaurant Les Épices Curiens, 3b Place de la Gare, 55600 Ecouviez, France",
      "id":"4421bcfd-ad5b-4079-b62f-489883641c6f",
      "lat":49.5245736440598,
      "lng":5.45661554760409,
      "locality":"Ecouviez",
      "name":"Hotel Restaurant Les Épices Curiens",
      "phone_number":"03 29 86 84 58",
      "point":null,
      "postal_code":"55600",
      "route":"Place de la Gare",
      "street_number":"3b",
      "website":"www.lesepicescuriens.com"
   },
   {
      "country":"France",
      "formatted_address":"Hotel Restaurant Les Portes De Meuse,  ZAC les Herbues, 55190 Pagny Sur Meuse, France",
      "id":"2469a4ef-552c-4635-a793-75bbaa5e2586",
      "lat":48.6822330734695,
      "lng":5.74265912055967,
      "locality":"Pagny Sur Meuse",
      "name":"Hotel Restaurant Les Portes De Meuse",
      "phone_number":"03 29 90 66 65",
      "point":null,
      "postal_code":"55190",
      "route":"ZAC les Herbues",
      "street_number":"",
      "website":"www.hotelportesdemeuse.com"
   },
   {
      "country":"France",
      "formatted_address":"Kebab Le Kapadoce, 43 Quai de Londres, 55100 Verdun, France",
      "id":"dc2fc14b-677b-4deb-9149-d13c3c66845e",
      "lat":49.1602531275931,
      "lng":5.38561868249508,
      "locality":"Verdun",
      "name":"Kebab Le Kapadoce",
      "phone_number":"09 84 14 78 82",
      "point":null,
      "postal_code":"55100",
      "route":"Quai de Londres",
      "street_number":"43",
      "website":""
   },
   {
      "country":"France",
      "formatted_address":"La Boucherie Restaurant,  Ferme de Popey, 55000 Bar Le Duc, France",
      "id":"0f6557a3-4d3d-4d6d-86ca-47e222b97bed",
      "lat":48.7643825,
      "lng":5.18444999999997,
      "locality":"Bar Le Duc",
      "name":"La Boucherie Restaurant",
      "phone_number":"03 29 70 95 44",
      "point":null,
      "postal_code":"55000",
      "route":"Ferme de Popey",
      "street_number":"",
      "website":""
   },
   {
      "country":"France",
      "formatted_address":"Le Comptoir De Maitre Kanter, 17 Boulevard de la Rochelle, 55000 Bar Le Duc, France",
      "id":"eeb99eec-7196-4f75-8075-762752d245db",
      "lat":48.7736696189272,
      "lng":5.16063419325405,
      "locality":"Bar Le Duc",
      "name":"Le Comptoir De Maitre Kanter",
      "phone_number":"03 29 76 75 00",
      "point":null,
      "postal_code":"55000",
      "route":"Boulevard de la Rochelle",
      "street_number":"17",
      "website":"www.comptoirmaitrekanter-barleduc.fr"
   },
   {
      "country":"France",
      "formatted_address":"Le Keb'S Sandwicherie Kebab, 39 Rue Jean-Jacques Rousseau, 55000 Bar Le Duc, France",
      "id":"81c46a10-9013-445c-8849-3642ca5e2e57",
      "lat":48.7731477,
      "lng":5.1597988,
      "locality":"Bar Le Duc",
      "name":"Le Keb'S Sandwicherie Kebab",
      "phone_number":"03 29 76 35 36",
      "point":null,
      "postal_code":"55000",
      "route":"Rue Jean-Jacques Rousseau",
      "street_number":"39",
      "website":"http://lekebssandwicherie.free.fr"
   },
   {
      "country":"France",
      "formatted_address":"Le Madine - Restauration Rapide, 15 Rue des Minimes, 55000 Bar Le Duc, France",
      "id":"f7636e06-6afe-4bc1-b610-ee614a969aab",
      "lat":48.7741932,
      "lng":5.16171829999996,
      "locality":"Bar Le Duc",
      "name":"Le Madine - Restauration Rapide",
      "phone_number":"09 85 06 25 18",
      "point":null,
      "postal_code":"55000",
      "route":"Rue des Minimes",
      "street_number":"15",
      "website":""
   },
   {
      "country":"France",
      "formatted_address":"Le Régal Fermier, 38 rue du Moulin, 55110 Dun Sur Meuse, France",
      "id":"29a28480-e349-46b9-8c1d-5c59469af159",
      "lat":49.3866562,
      "lng":5.1818711,
      "locality":"Dun Sur Meuse",
      "name":"Le Régal Fermier",
      "phone_number":"06 73 31 80 57",
      "point":null,
      "postal_code":"55110",
      "route":"rue du Moulin",
      "street_number":"38",
      "website":""
   },
   {
      "country":"France",
      "formatted_address":"L'Île Aux Sandwichs, 52 Boulevard de la Rochelle, 55000 Bar Le Duc, France",
      "id":"d99a804d-118a-42c2-9c48-030101fe6c26",
      "lat":48.7723307,
      "lng":5.16303530000005,
      "locality":"Bar Le Duc",
      "name":"L'Île Aux Sandwichs",
      "phone_number":"03 29 79 12 73",
      "point":null,
      "postal_code":"55000",
      "route":"Boulevard de la Rochelle",
      "street_number":"52",
      "website":"www.ileauxsandwichs.com"
   },
   {
      "country":"France",
      "formatted_address":"Mc Donald'S, 2A Rue des Romains - Pont Triby, 55000 Bar Le Duc, France",
      "id":"896a7f5e-8c6a-40a9-b192-a70237c345ce",
      "lat":48.7759075036063,
      "lng":5.16350414351655,
      "locality":"Bar Le Duc",
      "name":"Mc Donald'S",
      "phone_number":"03 29 79 00 16",
      "point":null,
      "postal_code":"55000",
      "route":"Rue des Romains - Pont Triby",
      "street_number":"2A",
      "website":"www.restaurants.mcdonalds.fr/mcdonalds-bar-le-duc"
   },
   {
      "country":"France",
      "formatted_address":"New’S Pizza, 57 Rue Jean Jacques Rousseau, 55000 Bar Le Duc, France",
      "id":"af947d86-59b9-43e4-bfe1-1a1ff4c4823d",
      "lat":48.7737564,
      "lng":5.16000959999997,
      "locality":"Bar Le Duc",
      "name":"New’S Pizza",
      "phone_number":"03 29 45 65 33",
      "point":null,
      "postal_code":"55000",
      "route":"Rue Jean Jacques Rousseau",
      "street_number":"57",
      "website":""
   },
   {
      "country":"France",
      "formatted_address":"Pizza Speed, 107 Rue Leroux, 55500 Ligny En Barrois, France",
      "id":"db210c8b-5339-4cf4-a679-0f10ff150b65",
      "lat":48.6914014947186,
      "lng":5.31784323798286,
      "locality":"Ligny En Barrois",
      "name":"Pizza Speed",
      "phone_number":"03 29 77 7000",
      "point":null,
      "postal_code":"55500",
      "route":"Rue Leroux",
      "street_number":"107",
      "website":""
   },
   {
      "country":"France",
      "formatted_address":"Pizzeria Du Lion D'Or, 21 Rue Général Pershing, 55300 Saint Mihiel, France",
      "id":"d0c44925-0f9b-45c2-a288-aa4eae641e41",
      "lat":48.8923,
      "lng":5.54126,
      "locality":"Saint Mihiel",
      "name":"Pizzeria Du Lion D'Or",
      "phone_number":"03 29 89 01 22",
      "point":null,
      "postal_code":"55300",
      "route":"Rue Général Pershing",
      "street_number":"21",
      "website":""
   },
   {
      "country":"France",
      "formatted_address":"Pizzeria Giulietta, 53 Rue Jeanne d'Arc, 55140 Vaucouleurs, France",
      "id":"84a0de20-9e44-4994-a7fe-75abe14549ed",
      "lat":48.6037587,
      "lng":5.66563919999999,
      "locality":"Vaucouleurs",
      "name":"Pizzeria Giulietta",
      "phone_number":"03 29 92 18 61",
      "point":null,
      "postal_code":"55140",
      "route":"Rue Jeanne d'Arc",
      "street_number":"53",
      "website":""
   },
   {
      "country":"France",
      "formatted_address":"Pizzeria La Storia, 164 Rue Général de Gaulle, 55430 Belleville Sur Meuse, France",
      "id":"a22b34a0-0d5d-4a87-bd82-39f416bc3244",
      "lat":49.1745810206249,
      "lng":5.38083739280705,
      "locality":"Belleville Sur Meuse",
      "name":"Pizzeria La Storia",
      "phone_number":"03 29 80 75 01",
      "point":null,
      "postal_code":"55430",
      "route":"Rue Général de Gaulle",
      "street_number":"164",
      "website":""
   },
   {
      "country":"France",
      "formatted_address":"Pizzeria La Toscana, 1 Rue Chaussée, 55100 Verdun, France",
      "id":"e28df1c7-2985-4963-8c3d-3b1639c4f88a",
      "lat":49.1620138810024,
      "lng":5.38626730442047,
      "locality":"Verdun",
      "name":"Pizzeria La Toscana",
      "phone_number":"03 29 84 49 74",
      "point":null,
      "postal_code":"55100",
      "route":"Rue Chaussée",
      "street_number":"1",
      "website":"https://www.restaurant-pizzeria-verdun.fr/"
   },
   {
      "country":"France",
      "formatted_address":"Pizzeria Le Franc-Ban, 6 Rue de Verdun, 55100 Dugny Sur Meuse, France",
      "id":"2ec3e353-f373-43b2-b825-32965fa761bf",
      "lat":49.1056608047855,
      "lng":5.38398551957403,
      "locality":"Dugny Sur Meuse",
      "name":"Pizzeria Le Franc-Ban",
      "phone_number":"03 29 85 73 97",
      "point":null,
      "postal_code":"55100",
      "route":"Rue de Verdun",
      "street_number":"6",
      "website":""
   },
   {
      "country":"France",
      "formatted_address":"Pizzeria Le Patio, 15 Rue Chanzy, 55700 Stenay, France",
      "id":"d1741440-0646-4a1e-8a7f-c6303ef7d237",
      "lat":49.4917881689913,
      "lng":5.18688768776633,
      "locality":"Stenay",
      "name":"Pizzeria Le Patio",
      "phone_number":"03 29 86 35 61",
      "point":null,
      "postal_code":"55700",
      "route":"Rue Chanzy",
      "street_number":"15",
      "website":""
   },
   {
      "country":"France",
      "formatted_address":"Pizzeria O'Break, 50 Rue Raymond Poincaré, 55210 Vigneulles Les Hattonchatel, France",
      "id":"6d804dfc-e17a-49c2-93c9-9fcf0519b50e",
      "lat":48.9805301,
      "lng":5.70881750000001,
      "locality":"Vigneulles Les Hattonchatel",
      "name":"Pizzeria O'Break",
      "phone_number":"06 50 94 83 80",
      "point":null,
      "postal_code":"55210",
      "route":"Rue Raymond Poincaré",
      "street_number":"50",
      "website":""
   },
   {
      "country":"France",
      "formatted_address":"Pizzeria Pizza Palace, 25 Avenue de Douaumont, 55100 Verdun, France",
      "id":"a4063c40-5c07-4d95-be9b-addf1b623786",
      "lat":49.1610108578932,
      "lng":5.38926648675533,
      "locality":"Verdun",
      "name":"Pizzeria Pizza Palace",
      "phone_number":"03 29 80 40 40",
      "point":null,
      "postal_code":"55100",
      "route":"Avenue de Douaumont",
      "street_number":"25",
      "website":""
   },
   {
      "country":"France",
      "formatted_address":"Pizzeria Via Pizza,  Boulevard de la Stratégique, 55100 Verdun, France",
      "id":"906c5789-b61d-4d34-a82a-90b7b5821ee4",
      "lat":49.1487208441034,
      "lng":5.37736177019194,
      "locality":"Verdun",
      "name":"Pizzeria Via Pizza",
      "phone_number":"03 29 84 13 53",
      "point":null,
      "postal_code":"55100",
      "route":"Boulevard de la Stratégique",
      "street_number":"",
      "website":"http://www.k55.fr/"
   },
   {
      "country":"France",
      "formatted_address":"Plesio Pizza, 55 Rue Jules Bancelin, 55120 Les Islettes, France",
      "id":"6f05566d-4d04-4cc0-aa86-ff1262044487",
      "lat":49.1095009,
      "lng":5.00378799999999,
      "locality":"Les Islettes",
      "name":"Plesio Pizza",
      "phone_number":"03 29 84 64 04",
      "point":null,
      "postal_code":"55120",
      "route":"Rue Jules Bancelin",
      "street_number":"55",
      "website":""
   },
   {
      "country":"France",
      "formatted_address":"Restaurant Athena, 17 Place de la République, 55500 Ligny En Barrois, France",
      "id":"a9d45012-027c-49f2-be73-9dcc1ba0a527",
      "lat":48.6883567,
      "lng":5.32362149999994,
      "locality":"Ligny En Barrois",
      "name":"Restaurant Athena",
      "phone_number":"03 29 78 40 47",
      "point":null,
      "postal_code":"55500",
      "route":"Place de la République",
      "street_number":"17",
      "website":""
   },
   {
      "country":"France",
      "formatted_address":"Restaurant Au Bon Seuil, 5 Place Lucien Poincaré, 55250 Seuil D'Argonne, France",
      "id":"e3cb19cf-f4f7-43d0-b2b4-c8e505d97a4d",
      "lat":48.9782363,
      "lng":5.0591403999999,
      "locality":"Seuil D'Argonne",
      "name":"Restaurant Au Bon Seuil",
      "phone_number":"03 29 70 32 63",
      "point":null,
      "postal_code":"55250",
      "route":"Place Lucien Poincaré",
      "street_number":"5",
      "website":""
   },
   {
      "country":"France",
      "formatted_address":"Restaurant Au Chaudron Vert, 1 Grand Rue, 55100 Belrupt En Verdunois, France",
      "id":"f975c7a5-1413-441f-a2d0-c2f2ee9595b2",
      "lat":49.141741013103,
      "lng":5.44295310974121,
      "locality":"Belrupt En Verdunois",
      "name":"Restaurant Au Chaudron Vert",
      "phone_number":"03 29 88 94 62",
      "point":null,
      "postal_code":"55100",
      "route":"Grand Rue",
      "street_number":"1",
      "website":"www.auchaudronvert.com"
   },
   {
      "country":"France",
      "formatted_address":"Restaurant Au Cheval Blanc, 25 Rue d'Etain, 55400 Buzy Darmont, France",
      "id":"196bd34e-efa0-4011-86bf-252c27ed4c64",
      "lat":49.1709695,
      "lng":5.7102544,
      "locality":"Buzy Darmont",
      "name":"Restaurant Au Cheval Blanc",
      "phone_number":"03 29 84 65 91",
      "point":null,
      "postal_code":"55400",
      "route":"Rue d'Etain",
      "street_number":"25",
      "website":""
   },
   {
      "country":"France",
      "formatted_address":"Restaurant Au Coup De Frein, 9 Route Nationale, 55600 Ire Le Sec, France",
      "id":"f66c4cae-2c77-4d03-8020-649273787450",
      "lat":49.476,
      "lng":5.38751,
      "locality":"Ire Le Sec",
      "name":"Restaurant Au Coup De Frein",
      "phone_number":"03 29 88 13 05",
      "point":null,
      "postal_code":"55600",
      "route":"Route Nationale",
      "street_number":"9",
      "website":""
   },
   {
      "country":"France",
      "formatted_address":"Restaurant Au Vieux Puits, 1 Place de la République, 55120 Clermont En Argonne, France",
      "id":"7c7fd9d3-8fa6-4e06-9e32-e399d81b7ba6",
      "lat":49.1052583485931,
      "lng":5.07017092083208,
      "locality":"Clermont En Argonne",
      "name":"Restaurant Au Vieux Puits",
      "phone_number":"06 26 73 07 26",
      "point":null,
      "postal_code":"55120",
      "route":"Place de la République",
      "street_number":"1",
      "website":""
   },
   {
      "country":"France",
      "formatted_address":"Restaurant Auberge Lorraine, 16 Grande Rue, 55110 Consenvoye, France",
      "id":"915a782f-c89d-4478-bb82-0bd0ce7fcc35",
      "lat":49.2865673466393,
      "lng":5.28510106878662,
      "locality":"Consenvoye",
      "name":"Restaurant Auberge Lorraine",
      "phone_number":"03 55 13 63 25",
      "point":null,
      "postal_code":"55110",
      "route":"Grande Rue",
      "street_number":"16",
      "website":""
   },
   {
      "country":"France",
      "formatted_address":"Restaurant Aux Delices Des Mets, 1 Boulevard de l'Ornain, 55500 Ligny En Barrois, France",
      "id":"7b75fdd9-4405-464f-a2b5-f89923f32f0f",
      "lat":48.6907647,
      "lng":5.32023939999999,
      "locality":"Ligny En Barrois",
      "name":"Restaurant Aux Delices Des Mets",
      "phone_number":"03 29 78 47 92",
      "point":null,
      "postal_code":"55500",
      "route":"Boulevard de l'Ornain",
      "street_number":"1",
      "website":"https://auxdelicesdesmets.fr/"
   },
   {
      "country":"France",
      "formatted_address":"Restaurant Aux Delices Du Maroc, 29 Avenue Maréchal Joffre, 55100 Verdun, France",
      "id":"8845cea1-f9c0-4a7b-9a98-e47a5732dcc2",
      "lat":49.1640136010012,
      "lng":5.39748477517696,
      "locality":"Verdun",
      "name":"Restaurant Aux Delices Du Maroc",
      "phone_number":"03 54 65 53 32",
      "point":null,
      "postal_code":"55100",
      "route":"Avenue Maréchal Joffre",
      "street_number":"29",
      "website":""
   },
   {
      "country":"France",
      "formatted_address":"Restaurant Aux Moulins A Poivre, 2 Impasse Varenne, 55000 Fains Veel, France",
      "id":"dbf28eb9-45a9-4004-8dc3-df1869379a83",
      "lat":48.787332,
      "lng":5.135165,
      "locality":"Fains Veel",
      "name":"Restaurant Aux Moulins A Poivre",
      "phone_number":"03 29 45 46 92",
      "point":null,
      "postal_code":"55000",
      "route":"Impasse Varenne",
      "street_number":"2",
      "website":""
   },
   {
      "country":"France",
      "formatted_address":"Restaurant Best Wok, 5 Avenue de la Grande Terre, 55000 Bar Le Duc, France",
      "id":"db918eec-4dc2-42a4-8d35-66c592cbff3c",
      "lat":48.7595788,
      "lng":5.1903628,
      "locality":"Bar Le Duc",
      "name":"Restaurant Best Wok",
      "phone_number":"03 29 71 04 60",
      "point":null,
      "postal_code":"55000",
      "route":"Avenue de la Grande Terre",
      "street_number":"5",
      "website":"https://bestwok55.com/"
   },
   {
      "country":"France",
      "formatted_address":"Restaurant Brasserie Café Chez Nous, 9 Avenue Jules Ferry, 55100 Verdun, France",
      "id":"21c9a702-d2e1-4c60-bcdc-e6ec2e9e440e",
      "lat":49.1472837,
      "lng":5.39199329999997,
      "locality":"Verdun",
      "name":"Restaurant Brasserie Café Chez Nous",
      "phone_number":"03 29 86 27 34",
      "point":null,
      "postal_code":"55100",
      "route":"Avenue Jules Ferry",
      "street_number":"9",
      "website":""
   },
   {
      "country":"France",
      "formatted_address":"Restaurant Brasserie Du Parc, 2 Avenue du Général Mangin, 55100 Verdun, France",
      "id":"a822cfb0-6f39-4901-8cd7-95ca8158ea77",
      "lat":49.1615468,
      "lng":5.388687,
      "locality":"Verdun",
      "name":"Restaurant Brasserie Du Parc",
      "phone_number":"03 29 80 71 36",
      "point":null,
      "postal_code":"55100",
      "route":"Avenue du Général Mangin",
      "street_number":"2",
      "website":""
   },
   {
      "country":"France",
      "formatted_address":"Restaurant Brasserie Le Rallye, 49 Quai de Londres, 55100 Verdun, France",
      "id":"33417210-0d0a-4175-89b5-e95d8a2fe510",
      "lat":49.1609128,
      "lng":5.38554859999999,
      "locality":"Verdun",
      "name":"Restaurant Brasserie Le Rallye",
      "phone_number":"03 29 86 10 65",
      "point":null,
      "postal_code":"55100",
      "route":"Quai de Londres",
      "street_number":"49",
      "website":""
   },
   {
      "country":"France",
      "formatted_address":"Restaurant Buffalo Grill, 4 Rue des Valottes, 55000 Bar Le Duc, France",
      "id":"be92e8b8-6d6d-4397-bb22-1c427a0da600",
      "lat":48.7593458349976,
      "lng":5.18923571656342,
      "locality":"Bar Le Duc",
      "name":"Restaurant Buffalo Grill",
      "phone_number":"03 29 45 40 07",
      "point":null,
      "postal_code":"55000",
      "route":"Rue des Valottes",
      "street_number":"4",
      "website":""
   },
   {
      "country":"France",
      "formatted_address":"Restaurant Buffalo Grill, 54 Avenue de Metz, 55100 Verdun, France",
      "id":"2e1e8f64-75a1-4e4b-a040-6068a2d0b645",
      "lat":49.1484925397828,
      "lng":5.40110528469086,
      "locality":"Verdun",
      "name":"Restaurant Buffalo Grill",
      "phone_number":"03 29 84 11 18",
      "point":null,
      "postal_code":"55100",
      "route":"Avenue de Metz",
      "street_number":"54",
      "website":""
   },
   {
      "country":"France",
      "formatted_address":"Restaurant Cafe Du Centre, 2 Rue de la Meuse, 55320 Dieue Sur Meuse, France",
      "id":"bba9db90-2f78-41c5-9ba7-cf09fcd0f591",
      "lat":49.0708086,
      "lng":5.42130050000003,
      "locality":"Dieue Sur Meuse",
      "name":"Restaurant Cafe Du Centre",
      "phone_number":"03 29 87 60 85",
      "point":null,
      "postal_code":"55320",
      "route":"Rue de la Meuse",
      "street_number":"2",
      "website":""
   },
   {
      "country":"France",
      "formatted_address":"Restaurant Casa Pizza, 39 Rue du Général de Gaulle, 55500 Ligny En Barrois, France",
      "id":"32ad12f6-027b-4aae-9f9d-1794750ea094",
      "lat":48.6871036,
      "lng":5.32411969999998,
      "locality":"Ligny En Barrois",
      "name":"Restaurant Casa Pizza",
      "phone_number":"03 29 70 10 18",
      "point":null,
      "postal_code":"55500",
      "route":"Rue du Général de Gaulle",
      "street_number":"39",
      "website":"https://casa-pizzas.fr/"
   },
   {
      "country":"France",
      "formatted_address":"Restaurant Chez Mamie, 52 Avenue de la 42ème Division, 55100 Verdun, France",
      "id":"ce16158f-2c18-46a2-b3d4-9c3cefa47d7d",
      "lat":49.1637748219011,
      "lng":5.39503276348114,
      "locality":"Verdun",
      "name":"Restaurant Chez Mamie",
      "phone_number":"03 29 86 45 50",
      "point":null,
      "postal_code":"55100",
      "route":"Avenue de la 42ème Division",
      "street_number":"52",
      "website":""
   },
   {
      "country":"France",
      "formatted_address":"Restaurant Chez Mamy, 12 Grande Rue, 55150 Damvillers, France",
      "id":"e33aaf9c-1bf5-4b5e-84dd-31ba9d04bb23",
      "lat":49.3420681970344,
      "lng":5.39866593930457,
      "locality":"Damvillers",
      "name":"Restaurant Chez Mamy",
      "phone_number":"06 85 21 46 37",
      "point":null,
      "postal_code":"55150",
      "route":"Grande Rue",
      "street_number":"12",
      "website":"https://www.facebook.com/Chez-mamy-103753214446065"
   },
   {
      "country":"France",
      "formatted_address":"Restaurant Chez Mozzart Est La, 30 Rue Cheppy, 55270 Varennes En Argonne, France",
      "id":"c6fbb87c-57ce-4423-927d-ff6ae494f42c",
      "lat":49.2261,
      "lng":5.03567,
      "locality":"Varennes En Argonne",
      "name":"Restaurant Chez Mozzart Est La",
      "phone_number":"03 29 80 14 47",
      "point":null,
      "postal_code":"55270",
      "route":"Rue Cheppy",
      "street_number":"30",
      "website":""
   },
   {
      "country":"France",
      "formatted_address":"Restaurant Chez Nat, 4 Place Saint Nicolas, 55100 Verdun, France",
      "id":"6119a496-594f-4221-9f93-db58a91c1960",
      "lat":49.1566605168055,
      "lng":5.38003921508789,
      "locality":"Verdun",
      "name":"Restaurant Chez Nat",
      "phone_number":"03 29 86 43 64",
      "point":null,
      "postal_code":"55100",
      "route":"Place Saint Nicolas",
      "street_number":"4",
      "website":"www.cheznat.fr"
   },
   {
      "country":"France",
      "formatted_address":"Restaurant Côté Cépages, 16/18 Rue Bar la ville, 55000 Bar Le Duc, France",
      "id":"5c8b949c-dd06-4771-87c9-4b2dabc0dde7",
      "lat":48.7762055,
      "lng":5.16143499999998,
      "locality":"Bar Le Duc",
      "name":"Restaurant Côté Cépages",
      "phone_number":"03 29 75 64 18",
      "point":null,
      "postal_code":"55000",
      "route":"Rue Bar la ville",
      "street_number":"16/18",
      "website":"www.cotecepages.fr"
   },
   {
      "country":"France",
      "formatted_address":"Restaurant Creperie La Bigouden, 14 Avenue Stanislas, 55200 Commercy, France",
      "id":"a4772fc6-c397-41c9-b4ef-d48539d1a6bf",
      "lat":48.7619,
      "lng":5.58899,
      "locality":"Commercy",
      "name":"Restaurant Creperie La Bigouden",
      "phone_number":"03 29 92 16 76",
      "point":null,
      "postal_code":"55200",
      "route":"Avenue Stanislas",
      "street_number":"14",
      "website":""
   },
   {
      "country":"France",
      "formatted_address":"Restaurant Creperie L'Austrasius, 2 Grande Rue, 55250 Beaulieu En Argonne, France",
      "id":"cddd3b14-54f0-44d7-8637-264cfb574aac",
      "lat":49.0323879,
      "lng":5.06855849999999,
      "locality":"Beaulieu En Argonne",
      "name":"Restaurant Creperie L'Austrasius",
      "phone_number":"03 29 75 05 87",
      "point":null,
      "postal_code":"55250",
      "route":"Grande Rue",
      "street_number":"2",
      "website":""
   },
   {
      "country":"France",
      "formatted_address":"Restaurant Creperie Le Pont Aven, 8 Place des Alliés, 55300 Saint Mihiel, France",
      "id":"2c73972b-8b09-45f9-8cae-da75d7ac098c",
      "lat":48.8901,
      "lng":5.54112,
      "locality":"Saint Mihiel",
      "name":"Restaurant Creperie Le Pont Aven",
      "phone_number":"03 29 89 13 55",
      "point":null,
      "postal_code":"55300",
      "route":"Place des Alliés",
      "street_number":"8",
      "website":""
   },
   {
      "country":"France",
      "formatted_address":"Restaurant Cugnot, 5 Place Cugnot, 55190 Void Vacon, France",
      "id":"00faa3b2-7c55-4823-b750-ef260cbe349b",
      "lat":48.6872083428472,
      "lng":5.61753941163943,
      "locality":"Void Vacon",
      "name":"Restaurant Cugnot",
      "phone_number":"03 29 89 81 69",
      "point":null,
      "postal_code":"55190",
      "route":"Place Cugnot",
      "street_number":"5",
      "website":""
   },
   {
      "country":"France",
      "formatted_address":"Restaurant D'Hotel La Cloche D'Or, 10 Place Saint Paul, 55100 Verdun, France",
      "id":"f15ab8ec-12a1-4414-aacd-211a6fdbc587",
      "lat":49.163167970854,
      "lng":5.38452923297882,
      "locality":"Verdun",
      "name":"Restaurant D'Hotel La Cloche D'Or",
      "phone_number":"03 29 86 03 60",
      "point":null,
      "postal_code":"55100",
      "route":"Place Saint Paul",
      "street_number":"10",
      "website":"www.laclochedor.fr"
   },
   {
      "country":"France",
      "formatted_address":"Restaurant D'Hôtel Le Relais, 6 Route Départementale 964, 55100 Vacherauville, France",
      "id":"0219cc1a-b46e-4b3e-b606-6599552ea9be",
      "lat":49.2227064458528,
      "lng":5.36254166931156,
      "locality":"Vacherauville",
      "name":"Restaurant D'Hôtel Le Relais",
      "phone_number":"03 29 84 51 74",
      "point":null,
      "postal_code":"55100",
      "route":"Route Départementale 964",
      "street_number":"6",
      "website":"www.relais-vacherauville.fr"
   },
   {
      "country":"France",
      "formatted_address":"Restaurant D'Hotel Les Orchidees, 368 Rue Robert Schuman, 55100 Verdun, France",
      "id":"4a764cb6-86a7-4089-80b9-8d38f36b147a",
      "lat":49.1650700900088,
      "lng":5.41959390625152,
      "locality":"Verdun",
      "name":"Restaurant D'Hotel Les Orchidees",
      "phone_number":"03 29 86 46 46",
      "point":null,
      "postal_code":"55100",
      "route":"Rue Robert Schuman",
      "street_number":"368",
      "website":"www.orchidees-hotel.com"
   },
   {
      "country":"France",
      "formatted_address":"Restaurant Domaine De L'Ecart,  Route de Seuzey, 55300 Lacroix Sur Meuse, France",
      "id":"2857d4a8-26b7-4308-bd53-57e6d7da03b0",
      "lat":48.9818808156208,
      "lng":5.53308723650246,
      "locality":"Lacroix Sur Meuse",
      "name":"Restaurant Domaine De L'Ecart",
      "phone_number":"09 75 76 36 62",
      "point":null,
      "postal_code":"55300",
      "route":"Route de Seuzey",
      "street_number":"",
      "website":"https://domainedelecart.fr"
   },
   {
      "country":"France",
      "formatted_address":"Restaurant Domaine De Sommedieue, 1 Rue du Parc, 55320 Sommedieue, France",
      "id":"47d6045b-73ff-4c6c-8aa1-549172a099f5",
      "lat":49.0881493371997,
      "lng":5.46865155288697,
      "locality":"Sommedieue",
      "name":"Restaurant Domaine De Sommedieue",
      "phone_number":"03 29 85 78 70",
      "point":null,
      "postal_code":"55320",
      "route":"Rue du Parc",
      "street_number":"1",
      "website":"www.fly-in-sommedieue.com"
   },
   {
      "country":"France",
      "formatted_address":"Restaurant Domaine Du Vieux Moulin, 3 Rue du Château, 55210 Lachaussee, France",
      "id":"61fe5d89-2103-44e4-aaef-bd47bc938171",
      "lat":49.0349868,
      "lng":5.8171747,
      "locality":"Lachaussee",
      "name":"Restaurant Domaine Du Vieux Moulin",
      "phone_number":"03 29 89 36 02",
      "point":null,
      "postal_code":"55210",
      "route":"Rue du Château",
      "street_number":"3",
      "website":"www.etang-de-lachaussee.com"
   },
   {
      "country":"France",
      "formatted_address":"Restaurant Don Camillo, 11 Rue du Général de Gaulle, 55500 Ligny En Barrois, France",
      "id":"6ea97e5b-45ab-447a-9250-678c9c035fc7",
      "lat":48.687797,
      "lng":5.32353799999999,
      "locality":"Ligny En Barrois",
      "name":"Restaurant Don Camillo",
      "phone_number":"03 29 78 34 57",
      "point":null,
      "postal_code":"55500",
      "route":"Rue du Général de Gaulle",
      "street_number":"11",
      "website":""
   },
   {
      "country":"France",
      "formatted_address":"Restaurant Du Chateau - Les Fous De Terroirs,  Rue du château, 55190 Void Vacon, France",
      "id":"16f94b92-ef1d-4561-8415-5426a8ed84bd",
      "lat":48.685994,
      "lng":5.61870150000004,
      "locality":"Void Vacon",
      "name":"Restaurant Du Chateau - Les Fous De Terroirs",
      "phone_number":"03 29 89 29 55",
      "point":null,
      "postal_code":"55190",
      "route":"Rue du château",
      "street_number":"",
      "website":"www.lesfousdeterroirs.fr"
   },
   {
      "country":"France",
      "formatted_address":"Restaurant Du Citybowl, 5 Rue Charles Delvert, 55100 Verdun, France",
      "id":"c1dcc0f1-03e4-45d5-9bca-e7d0361b3367",
      "lat":49.1483571776503,
      "lng":5.41138232275387,
      "locality":"Verdun",
      "name":"Restaurant Du Citybowl",
      "phone_number":"03 29 73 71 72",
      "point":null,
      "postal_code":"55100",
      "route":"Rue Charles Delvert",
      "street_number":"5",
      "website":"http://www.citybowl.fr/"
   },
   {
      "country":"France",
      "formatted_address":"Restaurant Du Fer A Cheval, 4 Place du Fer à Cheval, 55200 Commercy, France",
      "id":"00109c3f-3cc0-47c5-88ae-ced151173137",
      "lat":48.7633,
      "lng":5.59161,
      "locality":"Commercy",
      "name":"Restaurant Du Fer A Cheval",
      "phone_number":"03 29 89 08 36",
      "point":null,
      "postal_code":"55200",
      "route":"Place du Fer à Cheval",
      "street_number":"4",
      "website":""
   },
   {
      "country":"France",
      "formatted_address":"Restaurant Du Golf, 38 Rue Basse, 55000 Combles En Barrois, France",
      "id":"37c97a68-a0a9-464a-a04d-7ca81557bf4a",
      "lat":48.7536847901767,
      "lng":5.11647231845473,
      "locality":"Combles En Barrois",
      "name":"Restaurant Du Golf",
      "phone_number":"06 65 23 21 66",
      "point":null,
      "postal_code":"55000",
      "route":"Rue Basse",
      "street_number":"38",
      "website":""
   },
   {
      "country":"France",
      "formatted_address":"Restaurant Du Parc, 97 Rue du Général de Gaulle, 55500 Ligny En Barrois, France",
      "id":"4abcbae3-db1d-4d52-90c6-c08e515cebfb",
      "lat":48.6850556,
      "lng":5.32513500000005,
      "locality":"Ligny En Barrois",
      "name":"Restaurant Du Parc",
      "phone_number":"03 29 75 03 05",
      "point":null,
      "postal_code":"55500",
      "route":"Rue du Général de Gaulle",
      "street_number":"97",
      "website":""
   },
   {
      "country":"France",
      "formatted_address":"Restaurant Jack A Dit Pizzas, 10 Rue de la Gare, 55200 Lerouville, France",
      "id":"90e5e456-337c-4a79-92f0-cbf53cd47da7",
      "lat":48.7960110948186,
      "lng":5.53917485952456,
      "locality":"Lerouville",
      "name":"Restaurant Jack A Dit Pizzas",
      "phone_number":"06 44 95 63 92",
      "point":null,
      "postal_code":"55200",
      "route":"Rue de la Gare",
      "street_number":"10",
      "website":""
   },
   {
      "country":"France",
      "formatted_address":"Restaurant Kfc,  Aire de Verdun Saint-Nicolas, 55160 Haudiomont, France",
      "id":"a676b9e3-35fe-4769-8b3a-3a6625afa7da",
      "lat":49.1201946380403,
      "lng":5.50704432922214,
      "locality":"Haudiomont",
      "name":"Restaurant Kfc",
      "phone_number":"03 29 86 41 18",
      "point":null,
      "postal_code":"55160",
      "route":"Aire de Verdun Saint-Nicolas",
      "street_number":"",
      "website":""
   },
   {
      "country":"France",
      "formatted_address":"Restaurant Krok, 1 bis Rue Chaussée, 55100 Verdun, France",
      "id":"d034efb7-ccff-4c45-b3ec-c93aeb868153",
      "lat":49.1619823097775,
      "lng":5.38610100746155,
      "locality":"Verdun",
      "name":"Restaurant Krok",
      "phone_number":"03 29 84 20 00",
      "point":null,
      "postal_code":"55100",
      "route":"Rue Chaussée",
      "street_number":"1 bis",
      "website":"https://www.krokverdun.fr/"
   },
   {
      "country":"France",
      "formatted_address":"Restaurant La Favorite,  Route Nationale 4, 55190 Pagny Sur Meuse, France",
      "id":"5fb2a1a7-496c-4cff-8d64-734c98960f4b",
      "lat":48.6860339209419,
      "lng":5.72559459481818,
      "locality":"Pagny Sur Meuse",
      "name":"Restaurant La Favorite",
      "phone_number":"03 29 90 60 84",
      "point":null,
      "postal_code":"55190",
      "route":"Route Nationale 4",
      "street_number":"",
      "website":"www.la-favorite.fr"
   },
   {
      "country":"France",
      "formatted_address":"Restaurant La Feria, 44 Rue du Général de Gaulle, 55430 Belleville Sur Meuse, France",
      "id":"34535077-9b70-481e-8f59-da6787d36c70",
      "lat":49.1703268195465,
      "lng":5.38544006347661,
      "locality":"Belleville Sur Meuse",
      "name":"Restaurant La Feria",
      "phone_number":"03 29 80 86 53",
      "point":null,
      "postal_code":"55430",
      "route":"Rue du Général de Gaulle",
      "street_number":"44",
      "website":""
   },
   {
      "country":"France",
      "formatted_address":"Restaurant La Fontaine, 19 Rue du Général de Gaulle, 55300 Lacroix Sur Meuse, France",
      "id":"c4dd34db-a368-44f3-9209-8c177591ba9b",
      "lat":48.9719478,
      "lng":5.51325350000002,
      "locality":"Lacroix Sur Meuse",
      "name":"Restaurant La Fontaine",
      "phone_number":"06 26 71 23 69",
      "point":null,
      "postal_code":"55300",
      "route":"Rue du Général de Gaulle",
      "street_number":"19",
      "website":""
   },
   {
      "country":"France",
      "formatted_address":"Restaurant La Franquette Du Longeau,  Lieu-dit du Longeau, 55210 Hannonville Sous Les Cotes, France",
      "id":"c5203f05-b2b9-4b88-86e2-42f8f4aca8f8",
      "lat":49.02128,
      "lng":5.636786,
      "locality":"Hannonville Sous Les Cotes",
      "name":"Restaurant La Franquette Du Longeau",
      "phone_number":"03 29 87 30 54",
      "point":null,
      "postal_code":"55210",
      "route":"Lieu-dit du Longeau",
      "street_number":"",
      "website":"www.foxycamp.com"
   },
   {
      "country":"France",
      "formatted_address":"Restaurant La Gargote, 1 Boulevard Jean Monnet, 55100 Verdun, France",
      "id":"911ca1e8-c9f9-473c-94c5-1043089fb997",
      "lat":49.1410286102247,
      "lng":5.41000485420227,
      "locality":"Verdun",
      "name":"Restaurant La Gargote",
      "phone_number":"03 29 74 85 46",
      "point":null,
      "postal_code":"55100",
      "route":"Boulevard Jean Monnet",
      "street_number":"1",
      "website":""
   },
   {
      "country":"France",
      "formatted_address":"Restaurant La Grange, 10b Rue de l'Abbé Delhotel, 55600 Avioth, France",
      "id":"a7a1baaf-53c1-4991-9845-2b2d2e559618",
      "lat":49.566587345896,
      "lng":5.39111147350741,
      "locality":"Avioth",
      "name":"Restaurant La Grange",
      "phone_number":"03 29 83 37 97",
      "point":null,
      "postal_code":"55600",
      "route":"Rue de l'Abbé Delhotel",
      "street_number":"10b",
      "website":"www.lagrangedavioth.com"
   },
   {
      "country":"France",
      "formatted_address":"Restaurant La Houpette, 17 Rue Epinotte - La Houpette, 55170 Rupt Aux Nonains, France",
      "id":"7ef28eb1-aae0-460a-8b23-a457549f6fd8",
      "lat":48.6449444,
      "lng":5.0765582,
      "locality":"Rupt Aux Nonains",
      "name":"Restaurant La Houpette",
      "phone_number":"03 29 70 85 34",
      "point":null,
      "postal_code":"55170",
      "route":"Rue Epinotte - La Houpette",
      "street_number":"17",
      "website":""
   },
   {
      "country":"France",
      "formatted_address":"Restaurant La Main A La Pate, 3 Rue Bar la Ville, 55000 Bar Le Duc, France",
      "id":"cec0adf5-d713-4b53-903a-d15eb8f1aaca",
      "lat":48.7757378,
      "lng":5.16116920000002,
      "locality":"Bar Le Duc",
      "name":"Restaurant La Main A La Pate",
      "phone_number":"03 29 76 22 22",
      "point":null,
      "postal_code":"55000",
      "route":"Rue Bar la Ville",
      "street_number":"3",
      "website":""
   },
   {
      "country":"France",
      "formatted_address":"Restaurant La Mangerie, 25 Rue Dom Calmet, 55190 Menil La Horgne, France",
      "id":"9b5df90b-559a-4209-af18-01a616a87fd1",
      "lat":48.7032089,
      "lng":5.5290813,
      "locality":"Menil La Horgne",
      "name":"Restaurant La Mangerie",
      "phone_number":"06 43 81 54 85",
      "point":null,
      "postal_code":"55190",
      "route":"Rue Dom Calmet",
      "street_number":"25",
      "website":""
   },
   {
      "country":"France",
      "formatted_address":"Restaurant La Maraude, 50 Rue Raymond Poincaré, 55210 Vigneulles Les Hattonchatel, France",
      "id":"1f34e3b1-e6b8-463a-882c-c30934dc25b8",
      "lat":48.9805301,
      "lng":5.70881750000001,
      "locality":"Vigneulles Les Hattonchatel",
      "name":"Restaurant La Maraude",
      "phone_number":"03 29 90 80 46",
      "point":null,
      "postal_code":"55210",
      "route":"Rue Raymond Poincaré",
      "street_number":"50",
      "website":""
   },
   {
      "country":"France",
      "formatted_address":"Restaurant La Marmite, 18 Route Nationale, 55230 Rouvrois Sur Othain, France",
      "id":"8af1795c-2aeb-4401-8b66-ca039060c93b",
      "lat":49.3779,
      "lng":5.62968,
      "locality":"Rouvrois Sur Othain",
      "name":"Restaurant La Marmite",
      "phone_number":"03 29 85 90 79",
      "point":null,
      "postal_code":"55230",
      "route":"Route Nationale",
      "street_number":"18",
      "website":""
   },
   {
      "country":"France",
      "formatted_address":"Restaurant La Medina, 7 Avenue Stanislas, 55200 Commercy, France",
      "id":"fe955cbd-02e6-4202-9255-2712ec7e0008",
      "lat":48.7628523,
      "lng":5.5907829,
      "locality":"Commercy",
      "name":"Restaurant La Medina",
      "phone_number":"03 29 91 09 30",
      "point":null,
      "postal_code":"55200",
      "route":"Avenue Stanislas",
      "street_number":"7",
      "website":""
   },
   {
      "country":"France",
      "formatted_address":"Restaurant La Meuse Gourmande, 1 Rue François de Guise, 55000 Bar Le Duc, France",
      "id":"4eee9fdb-7f5e-469a-96d0-9d2daa3de09d",
      "lat":48.7708915132189,
      "lng":5.15782097916792,
      "locality":"Bar Le Duc",
      "name":"Restaurant La Meuse Gourmande",
      "phone_number":"03 29 79 28 40",
      "point":null,
      "postal_code":"55000",
      "route":"Rue François de Guise",
      "street_number":"1",
      "website":"www.meusegourmande.fr"
   },
   {
      "country":"France",
      "formatted_address":"Restaurant La Pataterie, 3 Rue Jacques Meyer, 55100 Verdun, France",
      "id":"a051492e-6096-4d92-871b-f6e97a68e7b9",
      "lat":49.1466257855416,
      "lng":5.41104555130005,
      "locality":"Verdun",
      "name":"Restaurant La Pataterie",
      "phone_number":"03 29 80 10 10",
      "point":null,
      "postal_code":"55100",
      "route":"Rue Jacques Meyer",
      "street_number":"3",
      "website":""
   },
   {
      "country":"France",
      "formatted_address":"Restaurant La Sicilia, 4 Avenue de la Gare, 55110 Doulcon, France",
      "id":"6e052a59-a925-41ec-813d-5988e1101d0f",
      "lat":49.3849634,
      "lng":5.18004510000003,
      "locality":"Doulcon",
      "name":"Restaurant La Sicilia",
      "phone_number":"03 29 80 90 25",
      "point":null,
      "postal_code":"55110",
      "route":"Avenue de la Gare",
      "street_number":"4",
      "website":""
   },
   {
      "country":"France",
      "formatted_address":"Restaurant La Table D'Argonne, 8 Place de la République, 55120 Clermont En Argonne, France",
      "id":"9617e731-bba6-4c88-9f58-8b5c55c32540",
      "lat":49.1054702383756,
      "lng":5.06970708465578,
      "locality":"Clermont En Argonne",
      "name":"Restaurant La Table D'Argonne",
      "phone_number":"09 87 00 61 24",
      "point":null,
      "postal_code":"55120",
      "route":"Place de la République",
      "street_number":"8",
      "website":"http://www.latabledargonne.fr"
   },
   {
      "country":"France",
      "formatted_address":"Restaurant La Table Du Château,  Rue du château, 55210 Vigneulles Les Hattonchatel, France",
      "id":"6850dab3-4187-483f-bfa7-280d115d17df",
      "lat":48.9928628664576,
      "lng":5.70579152911378,
      "locality":"Vigneulles Les Hattonchatel",
      "name":"Restaurant La Table Du Château",
      "phone_number":"03 29 89 31 79",
      "point":null,
      "postal_code":"55210",
      "route":"Rue du château",
      "street_number":"",
      "website":"www.hattonchatelchateau.fr"
   },
   {
      "country":"France",
      "formatted_address":"Restaurant L'Abondance, 6 Rue du Général De Gaulle, 55800 Revigny Sur Ornain, France",
      "id":"bd913510-2b5f-4c5f-a00b-0dcf41bb434d",
      "lat":48.828157,
      "lng":4.98634170000003,
      "locality":"Revigny Sur Ornain",
      "name":"Restaurant L'Abondance",
      "phone_number":"03 29 45 39 56",
      "point":null,
      "postal_code":"55800",
      "route":"Rue du Général De Gaulle",
      "street_number":"6",
      "website":""
   },
   {
      "country":"France",
      "formatted_address":"Restaurant L'Abri Des Pelerins, 1 Place Monseigneur Ginisty, 55100 Douaumont Vaux, France",
      "id":"778e09bc-48b8-4865-a131-03c938b8d974",
      "lat":49.2111493726703,
      "lng":5.42785227298737,
      "locality":"Douaumont Vaux",
      "name":"Restaurant L'Abri Des Pelerins",
      "phone_number":"06 70 92 93 97",
      "point":null,
      "postal_code":"55100",
      "route":"Place Monseigneur Ginisty",
      "street_number":"1",
      "website":"https://www.labridespelerins.fr"
   },
   {
      "country":"France",
      "formatted_address":"Restaurant L'Alcazar, 1 Rue de la Poudrière, 55600 Montmedy, France",
      "id":"ab8299cd-685f-4526-a740-ab14511e0326",
      "lat":49.5174479550479,
      "lng":5.36079989009431,
      "locality":"Montmedy",
      "name":"Restaurant L'Alcazar",
      "phone_number":"03 29 85 06 69",
      "point":null,
      "postal_code":"55600",
      "route":"Rue de la Poudrière",
      "street_number":"1",
      "website":"http://alcazar-montmedy.blogspot.fr"
   },
   {
      "country":"France",
      "formatted_address":"Restaurant L'Anmalou, 57 bis Rue de Bar, 55000 Brillon En Barrois, France",
      "id":"e1d13efb-1cae-4af2-b5f0-f71c49a245b6",
      "lat":48.7125677787072,
      "lng":5.09436726798401,
      "locality":"Brillon En Barrois",
      "name":"Restaurant L'Anmalou",
      "phone_number":"03 55 12 48 20",
      "point":null,
      "postal_code":"55000",
      "route":"Rue de Bar",
      "street_number":"57 bis",
      "website":""
   },
   {
      "country":"France",
      "formatted_address":"Restaurant L'Arlequin, 17 Place de l'Eglise, 55270 Varennes En Argonne, France",
      "id":"b72fb40b-bb98-469a-a78a-7ce5bf29a2ca",
      "lat":49.2282938,
      "lng":5.0358883,
      "locality":"Varennes En Argonne",
      "name":"Restaurant L'Arlequin",
      "phone_number":"03 29 87 89 21",
      "point":null,
      "postal_code":"55270",
      "route":"Place de l'Eglise",
      "street_number":"17",
      "website":""
   },
   {
      "country":"France",
      "formatted_address":"Restaurant L’Artaumarce, 8 Rue Raymond Poincaré, 55100 Bras Sur Meuse, France",
      "id":"9550ac9f-55ef-4f03-8048-8790f4b98a19",
      "lat":49.2100030554297,
      "lng":5.37571567853297,
      "locality":"Bras Sur Meuse",
      "name":"Restaurant L’Artaumarce",
      "phone_number":"03 29 84 45 29",
      "point":null,
      "postal_code":"55100",
      "route":"Rue Raymond Poincaré",
      "street_number":"8",
      "website":"http://www.lartaumarce.fr"
   },
   {
      "country":"France",
      "formatted_address":"Restaurant L'Atelier, 19 bis Rue de Cheppy, 55270 Varennes En Argonne, France",
      "id":"9a88249e-6da5-41e5-b490-cfd6445b9419",
      "lat":49.2284996,
      "lng":5.0402165,
      "locality":"Varennes En Argonne",
      "name":"Restaurant L'Atelier",
      "phone_number":"03 54 65 12 37",
      "point":null,
      "postal_code":"55270",
      "route":"Rue de Cheppy",
      "street_number":"19 bis",
      "website":""
   },
   {
      "country":"France",
      "formatted_address":"Restaurant L'Atypique, 75 Avenue de Miribel, 55100 Verdun, France",
      "id":"b9867802-a1c5-4af6-85a4-6d845075d0b0",
      "lat":49.1678644,
      "lng":5.39555459999997,
      "locality":"Verdun",
      "name":"Restaurant L'Atypique",
      "phone_number":"03 29 87 13 43",
      "point":null,
      "postal_code":"55100",
      "route":"Avenue de Miribel",
      "street_number":"75",
      "website":""
   },
   {
      "country":"France",
      "formatted_address":"Restaurant L'Auberge De Marville, 17 Grande Place, 55600 Marville, France",
      "id":"e5fd1397-094e-4422-9a75-06459d5b57e4",
      "lat":49.4532086283294,
      "lng":5.45861264546716,
      "locality":"Marville",
      "name":"Restaurant L'Auberge De Marville",
      "phone_number":"03 29 88 10 10",
      "point":null,
      "postal_code":"55600",
      "route":"Grande Place",
      "street_number":"17",
      "website":"www.aubergedemarville.com"
   },
   {
      "country":"France",
      "formatted_address":"Restaurant L'Authentique - France'In, 6 Rue de la Libération, 55150 Azannes Et Soumazannes, France",
      "id":"60f16e85-7648-456e-b24c-1c1d6c91963f",
      "lat":49.2910111585771,
      "lng":5.46772448703314,
      "locality":"Azannes Et Soumazannes",
      "name":"Restaurant L'Authentique - France'In",
      "phone_number":"06 86 71 08 53",
      "point":null,
      "postal_code":"55150",
      "route":"Rue de la Libération",
      "street_number":"6",
      "website":""
   },
   {
      "country":"France",
      "formatted_address":"Restaurant Le Bambou, 10 Rue Saint Brice, 55160 Bonzee, France",
      "id":"8e1851f9-8fd0-4900-a727-d63f588b8cb1",
      "lat":49.088335,
      "lng":5.578421,
      "locality":"Bonzee",
      "name":"Restaurant Le Bambou",
      "phone_number":"03 29 86 59 90",
      "point":null,
      "postal_code":"55160",
      "route":"Rue Saint Brice",
      "street_number":"10",
      "website":""
   },
   {
      "country":"France",
      "formatted_address":"Restaurant Le Bistro D'Élo, 55 Quai de Londres, 55100 Verdun, France",
      "id":"5eee4307-9278-4c3e-98ad-02b6c4147814",
      "lat":49.1615089,
      "lng":5.3863108,
      "locality":"Verdun",
      "name":"Restaurant Le Bistro D'Élo",
      "phone_number":"06 22 00 53 05",
      "point":null,
      "postal_code":"55100",
      "route":"Quai de Londres",
      "street_number":"55",
      "website":"https://www.lebistrodelo.fr"
   },
   {
      "country":"France",
      "formatted_address":"Restaurant Le Bistroquet, 7 Rue Colson, 55200 Commercy, France",
      "id":"cf3288a0-5c1a-490f-b1e8-43173313bbe5",
      "lat":48.7625991773513,
      "lng":5.59140583992007,
      "locality":"Commercy",
      "name":"Restaurant Le Bistroquet",
      "phone_number":"03 29 89 23 24",
      "point":null,
      "postal_code":"55200",
      "route":"Rue Colson",
      "street_number":"7",
      "website":""
   },
   {
      "country":"France",
      "formatted_address":"Restaurant Le Bonsejour, 33 Route de Metz, 55100 Verdun, France",
      "id":"99468019-d77d-4e66-9c36-896b05027dbe",
      "lat":49.148134633705,
      "lng":5.40245175361633,
      "locality":"Verdun",
      "name":"Restaurant Le Bonsejour",
      "phone_number":"03 29 84 66 63",
      "point":null,
      "postal_code":"55100",
      "route":"Route de Metz",
      "street_number":"33",
      "website":"www.lebonsejour.fr"
   },
   {
      "country":"France",
      "formatted_address":"Restaurant Le Bowling, 3 Rue du 8 mai 1945, 55100 Verdun, France",
      "id":"68d88492-03c0-48f0-9875-dea9c4a2cc8a",
      "lat":49.1601757006003,
      "lng":5.38934111595154,
      "locality":"Verdun",
      "name":"Restaurant Le Bowling",
      "phone_number":"03 29 84 30 39",
      "point":null,
      "postal_code":"55100",
      "route":"Rue du 8 mai 1945",
      "street_number":"3",
      "website":""
   },
   {
      "country":"France",
      "formatted_address":"Restaurant Le Brasero (Gari'S Pizza), 13 Rue de Blamont, 55100 Verdun, France",
      "id":"fe5fa163-4c86-4703-b96c-5bd02f02534b",
      "lat":49.1582602721007,
      "lng":5.3626424074173,
      "locality":"Verdun",
      "name":"Restaurant Le Brasero (Gari'S Pizza)",
      "phone_number":"03 29 86 34 29",
      "point":null,
      "postal_code":"55100",
      "route":"Rue de Blamont",
      "street_number":"13",
      "website":""
   },
   {
      "country":"France",
      "formatted_address":"Restaurant Le Carré Gourmand, 5 Rue Raymond Poincaré, 55800 Revigny Sur Ornain, France",
      "id":"b0ea354f-fba4-46a8-a438-a62964462d1d",
      "lat":48.8290279,
      "lng":4.98668629999997,
      "locality":"Revigny Sur Ornain",
      "name":"Restaurant Le Carré Gourmand",
      "phone_number":"09 67 77 85 04",
      "point":null,
      "postal_code":"55800",
      "route":"Rue Raymond Poincaré",
      "street_number":"5",
      "website":"www.carre-gourmand-restaurant.fr"
   },
   {
      "country":"France",
      "formatted_address":"Restaurant Le Chanzy, 18 Rue Aristide Briand, 55700 Stenay, France",
      "id":"4aa8daa4-7d05-402b-af53-26db2b8d248d",
      "lat":49.4904289,
      "lng":5.18589059999999,
      "locality":"Stenay",
      "name":"Restaurant Le Chanzy",
      "phone_number":"03 29 83 62 25",
      "point":null,
      "postal_code":"55700",
      "route":"Rue Aristide Briand",
      "street_number":"18",
      "website":""
   },
   {
      "country":"France",
      "formatted_address":"Restaurant Le Cheval Blanc, 8 Place de la République, 55500 Ligny En Barrois, France",
      "id":"7376e345-4039-43af-b13f-94b2d7eabf13",
      "lat":48.6887059242166,
      "lng":5.32300704365537,
      "locality":"Ligny En Barrois",
      "name":"Restaurant Le Cheval Blanc",
      "phone_number":"03 29 77 02 79",
      "point":null,
      "postal_code":"55500",
      "route":"Place de la République",
      "street_number":"8",
      "website":""
   },
   {
      "country":"France",
      "formatted_address":"Restaurant Le Clapier, 34 Rue des Gros Degrés, 55100 Verdun, France",
      "id":"6f65c000-9be3-4ac6-8aff-252ff6a82c91",
      "lat":49.1596179186273,
      "lng":5.38382649421692,
      "locality":"Verdun",
      "name":"Restaurant Le Clapier",
      "phone_number":"03 29 86 20 14",
      "point":null,
      "postal_code":"55100",
      "route":"Rue des Gros Degrés",
      "street_number":"34",
      "website":""
   },
   {
      "country":"France",
      "formatted_address":"Restaurant Le Club, 17 Place Chevert, 55100 Verdun, France",
      "id":"1cf1a8c4-b2ca-4e7d-a6f4-5d0f808fad68",
      "lat":49.1594157,
      "lng":5.38632269999994,
      "locality":"Verdun",
      "name":"Restaurant Le Club",
      "phone_number":"03 29 86 70 79",
      "point":null,
      "postal_code":"55100",
      "route":"Place Chevert",
      "street_number":"17",
      "website":""
   },
   {
      "country":"France",
      "formatted_address":"Restaurant Le Coup De Koeur, 1 Rue du Moulin, 55300 Koeur La Petite, France",
      "id":"b12215d6-5ec7-46b2-af6a-d52a22deb9ef",
      "lat":48.85575,
      "lng":5.494087,
      "locality":"Koeur La Petite",
      "name":"Restaurant Le Coup De Koeur",
      "phone_number":"03 29 90 81 60",
      "point":null,
      "postal_code":"55300",
      "route":"Rue du Moulin",
      "street_number":"1",
      "website":"http://coupdekoeur.free.fr"
   },
   {
      "country":"France",
      "formatted_address":"Restaurant Le Grill De La Tour, 15 Rue du Baile, 55000 Bar Le Duc, France",
      "id":"1556a112-31fc-4a19-a399-00c99b7f888d",
      "lat":48.7705487,
      "lng":5.15779939999993,
      "locality":"Bar Le Duc",
      "name":"Restaurant Le Grill De La Tour",
      "phone_number":"03 29 76 14 08",
      "point":null,
      "postal_code":"55000",
      "route":"Rue du Baile",
      "street_number":"15",
      "website":""
   },
   {
      "country":"France",
      "formatted_address":"Restaurant Le Kashmir, 33 Rue des Gros Degrés, 55100 Verdun, France",
      "id":"5cb03e75-cef4-4cb8-8e83-7785947f3311",
      "lat":49.1599794999134,
      "lng":5.38378405152889,
      "locality":"Verdun",
      "name":"Restaurant Le Kashmir",
      "phone_number":"03 29 85 01 72",
      "point":null,
      "postal_code":"55100",
      "route":"Rue des Gros Degrés",
      "street_number":"33",
      "website":""
   },
   {
      "country":"France",
      "formatted_address":"Restaurant Le Lagon, 5 Rue du Luxembourg, 55600 Montmedy, France",
      "id":"093c5ed4-f6ba-4d79-aab0-20bc544f6c8b",
      "lat":49.5205074750262,
      "lng":5.36729772750857,
      "locality":"Montmedy",
      "name":"Restaurant Le Lagon",
      "phone_number":"03 29 80 07 43",
      "point":null,
      "postal_code":"55600",
      "route":"Rue du Luxembourg",
      "street_number":"5",
      "website":"www.restaurant-le-lagon.fr"
   },
   {
      "country":"France",
      "formatted_address":"Restaurant Le Ligier Richier, 10 Place Ligier Richier, 55300 Saint Mihiel, France",
      "id":"df6757fc-bea1-4b5f-ae67-b7ef80daaa4c",
      "lat":48.8885042,
      "lng":5.54692460000001,
      "locality":"Saint Mihiel",
      "name":"Restaurant Le Ligier Richier",
      "phone_number":"03 29 89 05 61",
      "point":null,
      "postal_code":"55300",
      "route":"Place Ligier Richier",
      "street_number":"10",
      "website":"https://le-ligier-richier-restaurant.eatbu.com"
   },
   {
      "country":"France",
      "formatted_address":"Restaurant Le Lion D'Or, 5 Rue de Verdun, 55290 Montiers Sur Saulx, France",
      "id":"7a906de8-ace6-4fe4-9549-7545f73f46db",
      "lat":48.5325015,
      "lng":5.26736010000002,
      "locality":"Montiers Sur Saulx",
      "name":"Restaurant Le Lion D'Or",
      "phone_number":"03 29 70 11 68",
      "point":null,
      "postal_code":"55290",
      "route":"Rue de Verdun",
      "street_number":"5",
      "website":""
   },
   {
      "country":"France",
      "formatted_address":"Restaurant Le Mad'In Meuse, 10 Rue Charles de Gaulle, 55210 Heudicourt Sous Les Cotes, France",
      "id":"a26abf4b-001f-4a49-a302-56676220c25c",
      "lat":48.9325971,
      "lng":5.69838579999998,
      "locality":"Heudicourt Sous Les Cotes",
      "name":"Restaurant Le Mad'In Meuse",
      "phone_number":"06 77 77 34 39",
      "point":null,
      "postal_code":"55210",
      "route":"Rue Charles de Gaulle",
      "street_number":"10",
      "website":""
   },
   {
      "country":"France",
      "formatted_address":"Restaurant Le Marché, 11 Rue des Minimes, 55000 Bar Le Duc, France",
      "id":"196ecdb6-421a-4cc5-bf32-844a69390b14",
      "lat":48.7739781,
      "lng":5.16154640000002,
      "locality":"Bar Le Duc",
      "name":"Restaurant Le Marché",
      "phone_number":"03 29 76 20 87",
      "point":null,
      "postal_code":"55000",
      "route":"Rue des Minimes",
      "street_number":"11",
      "website":""
   },
   {
      "country":"France",
      "formatted_address":"Restaurant Le Monaco, 18 Rue Bradfer, 55000 Bar Le Duc, France",
      "id":"b6affae5-47c1-45dd-aa43-c75a5ce34873",
      "lat":48.7697363,
      "lng":5.17041760000006,
      "locality":"Bar Le Duc",
      "name":"Restaurant Le Monaco",
      "phone_number":"03 29 79 17 37",
      "point":null,
      "postal_code":"55000",
      "route":"Rue Bradfer",
      "street_number":"18",
      "website":""
   },
   {
      "country":"France",
      "formatted_address":"Restaurant Le Nid De Mirabelle, 4 Rue Saint-Didier, 55260 Baudremont, France",
      "id":"6cb29267-14ec-45c8-b503-cfa6b34fa9dc",
      "lat":48.839199,
      "lng":5.385742,
      "locality":"Baudremont",
      "name":"Restaurant Le Nid De Mirabelle",
      "phone_number":"03 29 71 00 19",
      "point":null,
      "postal_code":"55260",
      "route":"Rue Saint-Didier",
      "street_number":"4",
      "website":"http://www.le-nid-de-mirabelle.fr"
   },
   {
      "country":"France",
      "formatted_address":"Restaurant Le Panoramique, 9/11 Rue du Docteur Poulain, 55600 Montmedy, France",
      "id":"ecc5a3e8-1cde-4254-a3c2-aabaecf1010a",
      "lat":49.5162139310273,
      "lng":5.36938210052494,
      "locality":"Montmedy",
      "name":"Restaurant Le Panoramique",
      "phone_number":"03 29 80 11 68",
      "point":null,
      "postal_code":"55600",
      "route":"Rue du Docteur Poulain",
      "street_number":"9/11",
      "website":"http://lepanoramique.blogspot.fr"
   },
   {
      "country":"France",
      "formatted_address":"Restaurant Le Petit Bouchon, 2 Rue Haute, 55170 Bazincourt Sur Saulx, France",
      "id":"ef67c0bb-8f91-4aa6-99c8-76d13b1586d0",
      "lat":48.6751451,
      "lng":5.13922690000004,
      "locality":"Bazincourt Sur Saulx",
      "name":"Restaurant Le Petit Bouchon",
      "phone_number":"06 48 88 45 22",
      "point":null,
      "postal_code":"55170",
      "route":"Rue Haute",
      "street_number":"2",
      "website":"www.restaurant-lepetitbouchon.fr"
   },
   {
      "country":"France",
      "formatted_address":"Restaurant Le Poste De Garde, 47 Rue Saint Victor, 55100 Verdun, France",
      "id":"bb16bf13-75d7-4e74-98ea-8f104286d9fc",
      "lat":49.1534310287892,
      "lng":5.39268851280212,
      "locality":"Verdun",
      "name":"Restaurant Le Poste De Garde",
      "phone_number":"03 29 86 38 49",
      "point":null,
      "postal_code":"55100",
      "route":"Rue Saint Victor",
      "street_number":"47",
      "website":""
   },
   {
      "country":"France",
      "formatted_address":"Restaurant Le P'Tit Creux, 1 Place du Fer à cheval, 55200 Commercy, France",
      "id":"0781e56b-05b2-4194-a328-f8baea0bccc6",
      "lat":48.7629566,
      "lng":5.591772,
      "locality":"Commercy",
      "name":"Restaurant Le P'Tit Creux",
      "phone_number":"03 29 91 35 16",
      "point":null,
      "postal_code":"55200",
      "route":"Place du Fer à cheval",
      "street_number":"1",
      "website":""
   },
   {
      "country":"France",
      "formatted_address":"Restaurant Le Pub Saint Georges, 1 Place de la Gare, 55800 Revigny Sur Ornain, France",
      "id":"806d7b85-7ad9-4ede-8a26-fb4178359477",
      "lat":48.8246846,
      "lng":4.98614399999997,
      "locality":"Revigny Sur Ornain",
      "name":"Restaurant Le Pub Saint Georges",
      "phone_number":"03 29 75 60 50",
      "point":null,
      "postal_code":"55800",
      "route":"Place de la Gare",
      "street_number":"1",
      "website":""
   },
   {
      "country":"France",
      "formatted_address":"Restaurant Le Romarin, 16 Rue de Ligny, 55500 Velaines, France",
      "id":"a6ffab2f-4f67-4c23-9330-72d7327c8659",
      "lat":48.7024049,
      "lng":5.30107010000006,
      "locality":"Velaines",
      "name":"Restaurant Le Romarin",
      "phone_number":"03 29 78 19 97",
      "point":null,
      "postal_code":"55500",
      "route":"Rue de Ligny",
      "street_number":"16",
      "website":""
   },
   {
      "country":"France",
      "formatted_address":"Restaurant Le Soleil D'Or, 3 Place Jean Bérain, 55300 Saint Mihiel, France",
      "id":"6b3fb39a-b03e-4de2-913b-764cb039bae0",
      "lat":48.8897049568116,
      "lng":5.54091199140169,
      "locality":"Saint Mihiel",
      "name":"Restaurant Le Soleil D'Or",
      "phone_number":"03 29 75 78 55",
      "point":null,
      "postal_code":"55300",
      "route":"Place Jean Bérain",
      "street_number":"3",
      "website":"https://www.facebook.com/Soleil-dor-saint-mihiel-746853935503895/"
   },
   {
      "country":"France",
      "formatted_address":"Restaurant Le 29, 29 Quai de Londres, 55100 Verdun, France",
      "id":"9fa4f092-f8fc-47fb-a462-c8e0bf158919",
      "lat":49.1603912,
      "lng":5.3852766,
      "locality":"Verdun",
      "name":"Restaurant Le 29",
      "phone_number":"03 29 85 29 95",
      "point":null,
      "postal_code":"55100",
      "route":"Quai de Londres",
      "street_number":"29",
      "website":""
   },
   {
      "country":"France",
      "formatted_address":"Restaurant Les Colimencarts, 15 Rue Sainte-Marguerite, 55110 Dun Sur Meuse, France",
      "id":"826d2815-8d94-45a1-9ea0-2b519165e0e3",
      "lat":49.3887318134947,
      "lng":5.18148601055145,
      "locality":"Dun Sur Meuse",
      "name":"Restaurant Les Colimencarts",
      "phone_number":"03 29 80 81 80",
      "point":null,
      "postal_code":"55110",
      "route":"Rue Sainte-Marguerite",
      "street_number":"15",
      "website":""
   },
   {
      "country":"France",
      "formatted_address":"Restaurant Les Docks, 19 Quai de Londres, 55100 Verdun, France",
      "id":"69061f86-c3a9-403b-a55e-40288ff83d4c",
      "lat":49.1601058195333,
      "lng":5.38524084173355,
      "locality":"Verdun",
      "name":"Restaurant Les Docks",
      "phone_number":"09 54 79 53 54",
      "point":null,
      "postal_code":"55100",
      "route":"Quai de Londres",
      "street_number":"19",
      "website":"https://les-docks-restaurant.business.site/"
   },
   {
      "country":"France",
      "formatted_address":"Restaurant Les Essarts, 2 Route de Lamarche, 55210 Nonsard Lamarche, France",
      "id":"3d31c42a-1105-4351-9506-8490ef82b80b",
      "lat":48.931254,
      "lng":5.763252,
      "locality":"Nonsard Lamarche",
      "name":"Restaurant Les Essarts",
      "phone_number":"03 29 89 32 40",
      "point":null,
      "postal_code":"55210",
      "route":"Route de Lamarche",
      "street_number":"2",
      "website":""
   },
   {
      "country":"France",
      "formatted_address":"Restaurant Les Gourmands Disent, 24 Rue des Colins, 55200 Commercy, France",
      "id":"9ce9a321-09f8-42c0-aa47-01c416494547",
      "lat":48.7675,
      "lng":5.595,
      "locality":"Commercy",
      "name":"Restaurant Les Gourmands Disent",
      "phone_number":"03 29 89 90 35",
      "point":null,
      "postal_code":"55200",
      "route":"Rue des Colins",
      "street_number":"24",
      "website":""
   },
   {
      "country":"France",
      "formatted_address":"Restaurant Les Quatre Épices,  ZAC Les Cailloux, 55700 Stenay, France",
      "id":"f4762c9f-2713-48dd-b66e-a18403035d0e",
      "lat":49.48293,
      "lng":5.201458,
      "locality":"Stenay",
      "name":"Restaurant Les Quatre Épices",
      "phone_number":"03 29 80 32 42",
      "point":null,
      "postal_code":"55700",
      "route":"ZAC Les Cailloux",
      "street_number":"",
      "website":"www.villamotel.fr"
   },
   {
      "country":"France",
      "formatted_address":"Restaurant Les Tanneurs, 9 Rue Foch, 55200 Commercy, France",
      "id":"a111f6ca-7179-4661-a356-bfa22e473175",
      "lat":48.7625,
      "lng":5.5957,
      "locality":"Commercy",
      "name":"Restaurant Les Tanneurs",
      "phone_number":"03 29 92 03 03",
      "point":null,
      "postal_code":"55200",
      "route":"Rue Foch",
      "street_number":"9",
      "website":"http://www.restaurant-les-tanneurs.fr/"
   },
   {
      "country":"France",
      "formatted_address":"Restaurant Les Terrasses, 4 Rue de l'Innovation, 55200 Commercy, France",
      "id":"831e17b6-f0b6-4512-afb4-f11ed7b8ac0a",
      "lat":48.7501434199312,
      "lng":5.60292860984805,
      "locality":"Commercy",
      "name":"Restaurant Les Terrasses",
      "phone_number":"03 29 70 81 52",
      "point":null,
      "postal_code":"55200",
      "route":"Rue de l'Innovation",
      "street_number":"4",
      "website":""
   },
   {
      "country":"France",
      "formatted_address":"Restaurant L'Escapade, 108 Boulevard de la Rochelle, 55000 Bar Le Duc, France",
      "id":"d83f0394-84c3-48f7-a325-e1317e7c7e49",
      "lat":48.771151,
      "lng":5.16461490000006,
      "locality":"Bar Le Duc",
      "name":"Restaurant L'Escapade",
      "phone_number":"03 29 45 46 25",
      "point":null,
      "postal_code":"55000",
      "route":"Boulevard de la Rochelle",
      "street_number":"108",
      "website":""
   },
   {
      "country":"France",
      "formatted_address":"Restaurant L'Etable,   55150 Azannes Et Soumazannes, France",
      "id":"1e00f812-06ff-4ff4-8b12-6e652227d895",
      "lat":49.2895967744676,
      "lng":5.47285152647229,
      "locality":"Azannes Et Soumazannes",
      "name":"Restaurant L'Etable",
      "phone_number":"09 62 54 70 78",
      "point":null,
      "postal_code":"55150",
      "route":"",
      "street_number":"",
      "website":"https://www.facebook.com/pages/category/Restaurant/LEtable-104633004461805/"
   },
   {
      "country":"France",
      "formatted_address":"Restaurant L'Étal, 7 Avenue Garibaldi, 55100 Verdun, France",
      "id":"953f9504-2731-439a-acc3-9cdd8114930e",
      "lat":49.1649428,
      "lng":5.3830213,
      "locality":"Verdun",
      "name":"Restaurant L'Étal",
      "phone_number":"03 29 86 76 87",
      "point":null,
      "postal_code":"55100",
      "route":"Avenue Garibaldi",
      "street_number":"7",
      "website":""
   },
   {
      "country":"France",
      "formatted_address":"Restaurant L'Inconnu, 39 Quai de Londres, 55100 Verdun, France",
      "id":"0f96aac6-559b-4e96-803b-e33dc411ab47",
      "lat":49.1606320279143,
      "lng":5.38572359570082,
      "locality":"Verdun",
      "name":"Restaurant L'Inconnu",
      "phone_number":"09 80 44 06 00",
      "point":null,
      "postal_code":"55100",
      "route":"Quai de Londres",
      "street_number":"39",
      "website":""
   },
   {
      "country":"France",
      "formatted_address":"Restaurant Mc Donald'S, 17 Rue Paul Eugène Martin, 55100 Verdun, France",
      "id":"0ce5fc1b-f3fa-4047-8a66-af0db3d170bb",
      "lat":49.1457134364546,
      "lng":5.40730118751526,
      "locality":"Verdun",
      "name":"Restaurant Mc Donald'S",
      "phone_number":"03 29 84 75 60",
      "point":null,
      "postal_code":"55100",
      "route":"Rue Paul Eugène Martin",
      "street_number":"17",
      "website":"https://www.restaurants.mcdonalds.fr/mcdonalds-verdun"
   },
   {
      "country":"France",
      "formatted_address":"Restaurant Mc Donald'S,  Rue de la Louvière, 55200 Commercy, France",
      "id":"d393e19e-247e-477e-9491-55497fa62cd4",
      "lat":48.7536577171643,
      "lng":5.59836087598796,
      "locality":"Commercy",
      "name":"Restaurant Mc Donald'S",
      "phone_number":"03 29 79 18 25",
      "point":null,
      "postal_code":"55200",
      "route":"Rue de la Louvière",
      "street_number":"",
      "website":"https://www.restaurants.mcdonalds.fr/mcdonalds-commercy"
   },
   {
      "country":"France",
      "formatted_address":"Restaurant Mini-Golf O Club Gourmand, 2 Allée des Cévennes - Côte Sainte-Catherine, 55000 Bar Le Duc, France",
      "id":"49a4f611-50d5-4bc6-9359-e260fa74f526",
      "lat":48.7819206,
      "lng":5.17095919999997,
      "locality":"Bar Le Duc",
      "name":"Restaurant Mini-Golf O Club Gourmand",
      "phone_number":"03 29 70 74 31",
      "point":null,
      "postal_code":"55000",
      "route":"Allée des Cévennes - Côte Sainte-Catherine",
      "street_number":"2",
      "website":"www.oclubgourmand.fr"
   },
   {
      "country":"France",
      "formatted_address":"Restaurant Miso Sushi, 13 Avenue Garibaldi, 55100 Verdun, France",
      "id":"71fbe0c5-70a6-4b6d-8a9f-ea9e1cbe3424",
      "lat":49.1649429015376,
      "lng":5.38263559341431,
      "locality":"Verdun",
      "name":"Restaurant Miso Sushi",
      "phone_number":"03 29 86 60 60",
      "point":null,
      "postal_code":"55100",
      "route":"Avenue Garibaldi",
      "street_number":"13",
      "website":"misosushi.fr"
   },
   {
      "country":"France",
      "formatted_address":"Restaurant M'Los, 36 Rue Carnot, 55150 Damvillers, France",
      "id":"33b247b7-b2a8-4f3c-aa08-02b34b2c7c94",
      "lat":49.3516666666667,
      "lng":5.40055555555557,
      "locality":"Damvillers",
      "name":"Restaurant M'Los",
      "phone_number":"07 88 23 83 61",
      "point":null,
      "postal_code":"55150",
      "route":"Rue Carnot",
      "street_number":"36",
      "website":""
   },
   {
      "country":"France",
      "formatted_address":"Restaurant Murphy 55, 35 Rue Dom Calmet, 55190 Menil La Horgne, France",
      "id":"c08a1be5-9982-475b-850a-377d8ded26f5",
      "lat":48.7028521,
      "lng":5.52966879999997,
      "locality":"Menil La Horgne",
      "name":"Restaurant Murphy 55",
      "phone_number":"03 29 89 69 74",
      "point":null,
      "postal_code":"55190",
      "route":"Rue Dom Calmet",
      "street_number":"35",
      "website":""
   },
   {
      "country":"France",
      "formatted_address":"Restaurant One Tacos, 35 Quai de Londres, 55100 Verdun, France",
      "id":"48573011-5b90-4972-994a-993dde4c5c28",
      "lat":49.160506,
      "lng":5.3854084,
      "locality":"Verdun",
      "name":"Restaurant One Tacos",
      "phone_number":"06 24 59 54 09",
      "point":null,
      "postal_code":"55100",
      "route":"Quai de Londres",
      "street_number":"35",
      "website":""
   },
   {
      "country":"France",
      "formatted_address":"Restaurant Pastazz, 5 Rue de la Poterne, 55200 Commercy, France",
      "id":"48a60ba1-4ae7-44af-a6e5-0c2e96b9d49e",
      "lat":48.7624594,
      "lng":5.59224859999995,
      "locality":"Commercy",
      "name":"Restaurant Pastazz",
      "phone_number":"03 29 78 90 74",
      "point":null,
      "postal_code":"55200",
      "route":"Rue de la Poterne",
      "street_number":"5",
      "website":"https://pastazz.business.site"
   },
   {
      "country":"France",
      "formatted_address":"Restaurant Pizzeria Le Palais Gourmand, 8 Rue Raymond Poincaré, 55400 Etain, France",
      "id":"bc856113-0586-4a89-9071-798357a86d61",
      "lat":49.2134041128146,
      "lng":5.63532363313516,
      "locality":"Etain",
      "name":"Restaurant Pizzeria Le Palais Gourmand",
      "phone_number":"03 29 80 91 19",
      "point":null,
      "postal_code":"55400",
      "route":"Rue Raymond Poincaré",
      "street_number":"8",
      "website":"https://le-palais-gourmand-53.webself.net/accueil"
   },
   {
      "country":"France",
      "formatted_address":"Restaurant Pizzeria Portofino, 54 Rue du Docteur Nève, 55000 Bar Le Duc, France",
      "id":"76320663-fba6-46a3-a153-7dfbc73c8cb6",
      "lat":48.7712591,
      "lng":5.16151249999996,
      "locality":"Bar Le Duc",
      "name":"Restaurant Pizzeria Portofino",
      "phone_number":"03 29 79 13 56",
      "point":null,
      "postal_code":"55000",
      "route":"Rue du Docteur Nève",
      "street_number":"54",
      "website":"https://www.leportofino.fr"
   },
   {
      "country":"France",
      "formatted_address":"Restaurant Pizzeria Signorizza, 1 Rue Jacques Meyer, 55100 Verdun, France",
      "id":"97507fd0-3b45-478c-94b1-e73ea57944ff",
      "lat":49.1460853961876,
      "lng":5.41074514389038,
      "locality":"Verdun",
      "name":"Restaurant Pizzeria Signorizza",
      "phone_number":"03 29 83 48 35",
      "point":null,
      "postal_code":"55100",
      "route":"Rue Jacques Meyer",
      "street_number":"1",
      "website":""
   },
   {
      "country":"France",
      "formatted_address":"Restaurant Planete Wok,  Avenue de Metz, 55100 Verdun, France",
      "id":"3cf6fd31-e683-4aed-b27a-130b0f78857e",
      "lat":49.146202276204,
      "lng":5.4068160541367,
      "locality":"Verdun",
      "name":"Restaurant Planete Wok",
      "phone_number":"03 29 85 88 88",
      "point":null,
      "postal_code":"55100",
      "route":"Avenue de Metz",
      "street_number":"",
      "website":""
   },
   {
      "country":"France",
      "formatted_address":"Restaurant Polmard, 9 Place Saulcy, 55300 Saint Mihiel, France",
      "id":"8a48b6c4-9cae-4a5e-9b44-a17f7dd77103",
      "lat":48.8931373,
      "lng":5.54072470000006,
      "locality":"Saint Mihiel",
      "name":"Restaurant Polmard",
      "phone_number":"03 29 89 10 83",
      "point":null,
      "postal_code":"55300",
      "route":"Place Saulcy",
      "street_number":"9",
      "website":"http://www.polmard.com"
   },
   {
      "country":"France",
      "formatted_address":"Restaurant Pub Sherlock,  Rue du 61ème régiment d'artillerie, 55100 Verdun, France",
      "id":"8cac72d9-1a8c-4cc0-8ac1-8d268b6ff6eb",
      "lat":49.157379,
      "lng":5.37940800000001,
      "locality":"Verdun",
      "name":"Restaurant Pub Sherlock",
      "phone_number":"03 29 86 55 55",
      "point":null,
      "postal_code":"55100",
      "route":"Rue du 61ème régiment d'artillerie",
      "street_number":"",
      "website":"www.sherlockpub-verdun.fr"
   },
   {
      "country":"France",
      "formatted_address":"Restaurant Rive Gauche,  Place de l'Ancienne Gare, 55300 Saint Mihiel, France",
      "id":"a562507a-a7a2-4d7b-b94a-9301736944b3",
      "lat":48.8963119787426,
      "lng":5.5377930490738,
      "locality":"Saint Mihiel",
      "name":"Restaurant Rive Gauche",
      "phone_number":"06 75 10 18 94",
      "point":null,
      "postal_code":"55300",
      "route":"Place de l'Ancienne Gare",
      "street_number":"",
      "website":""
   },
   {
      "country":"France",
      "formatted_address":"Restaurant Romeo E Giulietta, 37 Rue des Rouyers, 55100 Verdun, France",
      "id":"852d2e7a-edca-4ed3-9ae7-c99613d95156",
      "lat":49.1616612,
      "lng":5.38602900000001,
      "locality":"Verdun",
      "name":"Restaurant Romeo E Giulietta",
      "phone_number":"03 29 85 88 86",
      "point":null,
      "postal_code":"55100",
      "route":"Rue des Rouyers",
      "street_number":"37",
      "website":""
   },
   {
      "country":"France",
      "formatted_address":"Restaurant Tel Pere Tel Fils, 38 Avenue du Maréchal Joffre, 55100 Verdun, France",
      "id":"feacbef9-3c81-4bed-829a-11658816a7e8",
      "lat":49.1636146,
      "lng":5.39803269999993,
      "locality":"Verdun",
      "name":"Restaurant Tel Pere Tel Fils",
      "phone_number":"09 84 04 58 50",
      "point":null,
      "postal_code":"55100",
      "route":"Avenue du Maréchal Joffre",
      "street_number":"38",
      "website":""
   },
   {
      "country":"France",
      "formatted_address":"Restaurant Turquoise, 79 Rue de Saint-Mihiel, 55000 Bar Le Duc, France",
      "id":"4364fc69-0da4-4733-827e-9bca22f707b1",
      "lat":48.7738166,
      "lng":5.17529890000003,
      "locality":"Bar Le Duc",
      "name":"Restaurant Turquoise",
      "phone_number":"03 55 12 44 32",
      "point":null,
      "postal_code":"55000",
      "route":"Rue de Saint-Mihiel",
      "street_number":"79",
      "website":""
   },
   {
      "country":"France",
      "formatted_address":"Restaurant Wokasie, 8 Rue des Brielles, 55000 Bar Le Duc, France",
      "id":"59e970cb-de67-464d-b73d-87fd6117e156",
      "lat":48.7582415773881,
      "lng":5.1900650921707,
      "locality":"Bar Le Duc",
      "name":"Restaurant Wokasie",
      "phone_number":"03 29 45 26 14",
      "point":null,
      "postal_code":"55000",
      "route":"Rue des Brielles",
      "street_number":"8",
      "website":""
   },
   {
      "country":"France",
      "formatted_address":"Restaurant 19 Quatre, 7 Chemin de Popey, 55000 Bar Le Duc, France",
      "id":"27202f72-9b13-4920-a240-806f8ad7b12e",
      "lat":48.7626299,
      "lng":5.18428740000002,
      "locality":"Bar Le Duc",
      "name":"Restaurant 19 Quatre",
      "phone_number":"03 29 70 53 42",
      "point":null,
      "postal_code":"55000",
      "route":"Chemin de Popey",
      "street_number":"7",
      "website":"www.19quatre.com"
   },
   {
      "country":"France",
      "formatted_address":"Restaurant-Bar Le Dai Dai, 3 Place Reggio, 55000 Bar Le Duc, France",
      "id":"271071fb-fee8-485e-abec-d6aa5f47e639",
      "lat":48.7732642860135,
      "lng":5.1584032736107,
      "locality":"Bar Le Duc",
      "name":"Restaurant-Bar Le Dai Dai",
      "phone_number":"03 29 89 10 20",
      "point":null,
      "postal_code":"55000",
      "route":"Place Reggio",
      "street_number":"3",
      "website":""
   },
   {
      "country":"France",
      "formatted_address":"Restauration Rapide - L'Atelier Du Barrois, 5 Rue Leroux, 55500 Ligny En Barrois, France",
      "id":"3cc6a9b2-c393-439a-901f-1f1863d3f037",
      "lat":48.6936111111111,
      "lng":5.33277777777778,
      "locality":"Ligny En Barrois",
      "name":"Restauration Rapide - L'Atelier Du Barrois",
      "phone_number":"06 26 07 32 37",
      "point":null,
      "postal_code":"55500",
      "route":"Rue Leroux",
      "street_number":"5",
      "website":""
   },
   {
      "country":"France",
      "formatted_address":"Restauration Rapide Le Chalet,  Place Thiers, 55100 Verdun, France",
      "id":"77154328-ead3-4956-b153-bf2d2f109b54",
      "lat":49.1581833422285,
      "lng":5.38653063356014,
      "locality":"Verdun",
      "name":"Restauration Rapide Le Chalet",
      "phone_number":"06 80 12 49 58",
      "point":null,
      "postal_code":"55100",
      "route":"Place Thiers",
      "street_number":"",
      "website":""
   },
   {
      "country":"France",
      "formatted_address":"Resto De La Place, 8 Place Jean-Baptiste-Rouillon, 55400 Etain, France",
      "id":"0403a8e5-f622-4537-9133-93489ea746e8",
      "lat":49.213270184513,
      "lng":5.63573876057434,
      "locality":"Etain",
      "name":"Resto De La Place",
      "phone_number":"09 75 74 31 20",
      "point":null,
      "postal_code":"55400",
      "route":"Place Jean-Baptiste-Rouillon",
      "street_number":"8",
      "website":""
   },
   {
      "country":"France",
      "formatted_address":"Salon De Thé Boulangerie Le Moulin Des Gourmandises,  Rue Fernand Braudel, 55100 Verdun, France",
      "id":"76481b0d-f6a5-4f81-b7b3-7548a5e8085e",
      "lat":49.1456713276297,
      "lng":5.40958642959595,
      "locality":"Verdun",
      "name":"Salon De Thé Boulangerie Le Moulin Des Gourmandises",
      "phone_number":"03 29 80 88 24",
      "point":null,
      "postal_code":"55100",
      "route":"Rue Fernand Braudel",
      "street_number":"",
      "website":""
   },
   {
      "country":"France",
      "formatted_address":"Salon De Thé Traiteur Aux Delices, 19 Rue Mazel, 55100 Verdun, France",
      "id":"6a4aded2-98ce-4683-82e8-e7015640e1ab",
      "lat":49.160537027708,
      "lng":5.3844541311264,
      "locality":"Verdun",
      "name":"Salon De Thé Traiteur Aux Delices",
      "phone_number":"03 29 86 02 10",
      "point":null,
      "postal_code":"55100",
      "route":"Rue Mazel",
      "street_number":"19",
      "website":""
   },
   {
      "country":"France",
      "formatted_address":"Salon Dominique Cordel, 27 Boulevard de la Rochelle, 55000 Bar Le Duc, France",
      "id":"6a0db6e6-6e5d-432d-bff1-6bec1f5cae5d",
      "lat":48.7732553938933,
      "lng":5.16130148346713,
      "locality":"Bar Le Duc",
      "name":"Salon Dominique Cordel",
      "phone_number":"03 29 79 13 06",
      "point":null,
      "postal_code":"55000",
      "route":"Boulevard de la Rochelle",
      "street_number":"27",
      "website":"www.dominiquecordel.com"
   },
   {
      "country":"France",
      "formatted_address":"Snack Chez Dg,  ZAC du Château d'Eau, 55400 Etain, France",
      "id":"09597c15-87f9-410d-975f-cd3742a12d9e",
      "lat":49.2194318047608,
      "lng":5.64719123439331,
      "locality":"Etain",
      "name":"Snack Chez Dg",
      "phone_number":"07 83 58 70 81",
      "point":null,
      "postal_code":"55400",
      "route":"ZAC du Château d'Eau",
      "street_number":"",
      "website":"https://barchezdg.wixsite.com/chezdg"
   },
   {
      "country":"France",
      "formatted_address":"Snack Chez Rom'Steak,  Rue de Bonnetage, 55160 Fresnes En Woevre, France",
      "id":"14ca9ec1-9bb7-4d8f-ae01-7ea6d4001c8c",
      "lat":49.0962775301182,
      "lng":5.63128182943039,
      "locality":"Fresnes En Woevre",
      "name":"Snack Chez Rom'Steak",
      "phone_number":"03 29 88 01 47",
      "point":null,
      "postal_code":"55160",
      "route":"Rue de Bonnetage",
      "street_number":"",
      "website":""
   },
   {
      "country":"France",
      "formatted_address":"Taverne Du Musee De La Biere,  Rue de la Citadelle, 55700 Stenay, France",
      "id":"f5d72eb0-7e11-40e3-9939-606b463d06fd",
      "lat":49.4884147625597,
      "lng":5.18644250660714,
      "locality":"Stenay",
      "name":"Taverne Du Musee De La Biere",
      "phone_number":"03 29 80 62 33",
      "point":null,
      "postal_code":"55700",
      "route":"Rue de la Citadelle",
      "street_number":"",
      "website":"https://museedelabiere.com"
   }
]